id,name,review_count,rating,latitude,longitude,price,zip_code
quuV34VlUSjFaFWzFDWavw,Jacoby's German Biergarten,285,4.0,42.33229,-83.04208,$$,48226
ngur8BN72eO8vh17hW80dg,Sweetwater Tavern,585,3.5,42.33167,-83.04163,$$,48226
fJ-g62WpfeNbR4qv7qAawA,Niki's Pizza,250,3.5,42.33372,-83.042,$$,48226
Uwo_Nx_2WDvGF9SwVMlEAg,Detroiter Bar,102,4.0,42.33292,-83.0413,$,48226
G28_p5q7RnAbeJnIc-XQww,Floods Bar & Grille,136,3.5,42.33418,-83.04006,$$,48226
VOjmQVpCLjRlOkGtLDLFYQ,The Elephant Room,64,4.0,42.33242,-83.04129,,48226
ADi8SOow2XPid6NfR98lGQ,Pegasus Taverna - Greektown,538,3.5,42.33511,-83.0418,$$,48226
DGKGnFBhBbT2ZG6Tw4MeSQ,Red Smoke Barbecue,529,3.5,42.3355,-83.0412,$$,48226
o2yrWVcAqSInuLua4UkK4A,Loco's Tex-Mex Grille,168,2.5,42.33376,-83.04207,$$,48226
Y-b2ciCZx3B66e3jzwM58w,The Clique Restaurant,162,4.5,42.33324,-83.03345,$,48207
UB69uSqkwjTKMuGbWEqs5w,Basement Burger Bar,268,4.0,42.33544,-83.04415,$$,48226
fvq6GctVWHECsH3Qr7Cy0w,Grand Trunk Pub,582,3.5,42.33064,-83.04554,$$,48226
KGflsQO1qzh5V5QfwaDekw,Central Kitchen + Bar,383,3.5,42.3309,-83.04537,$$,48226
4in-S0PWC_ESuyWRCySiAQ,Nathan's Deli,22,4.0,42.33172,-83.03849,$,48226
RMNdJkdMe7jGMQC0ckBlrg,Prism,90,4.0,42.33451,-83.04123,$$$,48226
15OGyKpAqgAJjlXIQUdpqQ,Firebird Tavern,191,4.0,42.33471,-83.04328,$$,48226
gpOKnMXXiRemJf8x0-oHqg,Townhouse,915,3.0,42.33024,-83.04533,$$$,48226
kgXy9XwRanK8mfOuxQP1gA,Besa,165,4.0,42.33052,-83.04533,$$$,48226
gwp2wEKZXfWGxnLJKO5bgQ,Golden Fleece Restaurant,286,3.5,42.33526,-83.04214,$$,48226
NJsDmNXS5c_V5_0pxW0UPg,Fishbone's,563,3.0,42.33448,-83.04335,$$,48226
A_yrbQxH-SZ8wLm9NWkQPg,Highlands,146,4.0,42.32987,-83.04045,$$$$,48243
QVcN7M8GiXUICGLwO2IZjQ,Checker Bar,146,4.0,42.33129,-83.04405,$,48226
2Sa8uYj52lHah_NvBkkeew,The Greek,88,4.0,42.33538,-83.04194,$$,48226
R5OtDkJ4wzkJyPXxrzG7cg,Ham Shop Cafe,113,4.0,42.33399,-83.04427,$,48226
M5UMOhLFzoF8GxMve9sErA,Eat-N-Out Pizza & Gelato,64,4.0,42.33515,-83.0421,$,48226
3QMhnxYleG43BLS86ltP1g,Orchid Thai Restaurant,118,3.5,42.33362,-83.04537,$,48226
CczeReC8hCs-0l1_8sIVgw,Cadillac Square Diner,82,4.0,42.33196,-83.04416,$,48226
9LDcEENmYP6wi1WUppsbtw,Lunchtime Global,63,4.0,42.33098,-83.04539,$,48226
loPaqMh6pX9PWTyPnpFaJw,Applebee's Bar + Grill,42,3.0,42.33051,-83.04165,,48226
TfuX0QpF1s3uShFc7uj5Zw,Bangkok Crossing,109,3.5,42.3307,-83.04565,$,48226
I_0s7MUalZUap1BmAj7Mtg,Harbor House,218,3.0,42.33593,-83.04397,$$,48226
4sPVal9E0yUjumVIN32hEw,The Old Shillelagh,192,3.0,42.33449,-83.04398,$$,48226
Dpukh89ld6B_F2cLh46gag,Mr. Kabob Xpress,76,3.5,42.33379,-83.04523,$,48226
ujOTFNtrW-6oO02KfAHZ1Q,Minnie's Detroit,7,3.5,42.33178,-83.03939,,48226
JFEL1934mhmjtMWsf7nhdA,Bistro 555,76,2.5,42.33451,-83.04123,$$,48226
T-6RpIP81phE4svW2DWvPA,Volt,83,3.0,42.32876,-83.04026,$$,48243
hWWPnAgK2rcAjW2VKTtjaA,Gourmet Deli,10,4.5,42.33024,-83.03852,$,48243
PYGIPtijkfezc11XeS1LyA,Level Two Bar & Rooftop,128,2.5,42.33536,-83.04192,$$,48226
gcu6m_o-g3mnuRSZ_hbq-g,The Baltimore,47,3.5,42.3345,-83.04497,$,48226
34VcpDU72IPQrKXjlnvC_g,Shredderz Food Truck,20,4.5,42.37384,-83.135,$,48204
M0VRYr5EaeCWdx8dTLAeJg,Delmar,43,3.0,42.33513,-83.04239,,48226
FnOkWXk-WLlrimm7xlmRNQ,Delectabowl Food Truck & Catering,29,4.0,42.46085,-83.11274,$,48220
N7_qklWP7ykevBCatOQPPA,Hearth 71,9,4.5,42.33006,-83.03992,,48243
WYXAGfpqLu7x-YyEGbrBpA,Woodward Coney Restaurant,32,3.5,42.33067,-83.04555,$,48226
FNLkG-vjoCDOwC9x8G-69g,Esto's Garage,5,5.0,42.33143,-83.04575,,48209
HYrqw4xlLCNDptBHGrTIbQ,Dime Store,1606,4.5,42.33081,-83.04799,$$,48226
NcM6ASYzFMDN366FsuBTVw,Green Dot Stables,1949,4.0,42.32187,-83.07144,$,48216
4p1bXdMdETmyU5qhzFxNxw,Selden Standard,1165,4.5,42.34779,-83.06499,$$,48201
Xm2A4Xyd-dw4x86qZCV3hw,Chartreuse,732,4.5,42.36054,-83.06595,$$$,48202
W8sLqrbS-ZxIuEuQbjAIrw,Slows Bar BQ,2116,4.0,42.3316,-83.07595,$$,48216
8ctLeteWujq_EfH2lRSTAw,Supino Pizzeria,924,4.5,42.34548,-83.04006,$$,48207
7ArIKwojlm_Yca29HnGDfQ,Wright & Company,929,4.5,42.33523,-83.04902,$$$,48226
YqmsCvd3w0RxEiAcYGj64w,Mudgie's Deli & Wine Shop,920,4.5,42.32912,-83.06206,$$,48226
x7bzkyPv0pf8mmp4BaexZQ,Lafayette Coney Island,1000,4.0,42.3315,-83.04886,$,48226
UdO_uBm3sIM5DwaE8XIpbg,Grey Ghost Detroit,828,4.0,42.34517,-83.05552,$$$,48201
3Nbs9f7DxP3siSu1pjLj1w,Takoi,601,4.5,42.33164,-83.08083,$$,48216
Qn3BDpni0V2vtp9P0-85BQ,Taqueria El Rey,432,4.5,42.31903,-83.09918,$,48209
WFtnK-JJnoVHtbMAQW7tNg,The Hudson Cafe,1096,4.0,42.33336,-83.0485,$$,48226
YtWT6_MKURJKEpNKbO-nzg,ima,528,4.5,42.33114,-83.07376,$$,48216
gL6l1EqphkyLqER5lgmReg,Standby,567,4.5,42.33448,-83.04611,$$,48226
65pRcC4awElAnzH4io9Chw,Batch Brewing Company,430,4.5,42.32834,-83.06329,$$,48216
ngu3My-XGzNNL7Bxul5ulQ,Ottava Via,720,4.0,42.33172,-83.0657,$$,48216
WiKKNXaHC4Zino2A1m3ftQ,Royale with Cheese,574,4.0,42.35034,-83.06341,$$,48201
oeomzExb17rIkur7hNK-HQ,Vicente's Cuban Cuisine,850,4.0,42.33447,-83.04708,$$,48226
DuFQa_-drBCwMRGsMzMPsQ,Pie Sci,268,4.5,42.35396,-83.08003,$$,48208
CnCpxcw9r6lgKDk4br8TKA,Bakersfield,588,4.0,42.34518,-83.05572,$$,48201
JoZ0n3kkbSuGr4Xemig0mA,Motor City Brewing Works-Canfield,514,4.0,42.35176,-83.06602,$$,48201
kLwuEacC69wf8aVAa0BojA,Taqueria Mi Pueblo,543,4.0,42.31709,-83.12419,$,48209
qa70o0JbMVMQJf4fvWiZaw,Johnny Noodle King,764,4.0,42.31885,-83.07437,$$,48216
TUR6H5mBXMDGt3qjv5sekg,Buddy's Pizza,289,4.5,42.41897,-83.06405,$$,48212
bXr2fXKhEOJqm3EPdTJMCw,Avalon International Breads,334,4.5,42.35041,-83.06408,$,48201
jDHPcMstUfhnbp-4dVm7YQ,SavannahBlue,500,4.0,42.33419,-83.05233,$$,48226
RvZGz_qp8JWfG27vI-TnBQ,Mercury Burger Bar,759,4.0,42.33116,-83.07614,$$,48216
2sIc82MtKcAjx7oW3b6sqA,Andiamo,624,4.0,42.32823,-83.03966,$$$,48243
PyWdjQkGTkOcprSk3WRFNw,Honey Bee La Colmena,233,4.5,42.32564,-83.07651,$,48216
-rc4wleX8H706sc8D8wU2Q,Chili Mustard Onions,230,4.5,42.34767,-83.05283,$$,48201
66OeH9RD62D3bXbqefjYvw,Giovanni's Ristorante,305,4.5,42.29032,-83.14591,$$$,48217
T6Zl8NssV2qy8Vn9c9ueDQ,Bobcat Bonnie's,596,4.0,42.33154,-83.07074,$$,48216
FyEORWCcFAy3VCeixbU2VQ,Parc,729,4.0,42.33142,-83.04686,$$$,48226
DsXh8jluV0BaSkVhxQre8Q,SheWolf Pastificio & Bar,382,4.0,42.34795,-83.0627,$$$,48201
ZrThFosYNhJmoMx0FI8P3A,Joe Muer Seafood,696,4.0,42.32795,-83.04014,$$$,48243
5hGsCVDQ_Iz6997CXG3amw,Roasting Plant Detroit,304,4.5,42.33111,-83.0461,$,48226
-mguM6V0E2XTx3A1qBLSyw,Baobab Fare,112,5.0,42.37001,-83.07294,$$,48202
k5gw_iV5voifCSsSn6d1_w,Pupusería y Restaurante Salvadoreño,234,4.5,42.32485,-83.11624,$,48210
unpNAU7aIF11_VQvZXUOWg,The Apparatus Room,631,4.0,42.32816,-83.04851,$$$,48226
YPW37XWMlTZx3y7r80o8rA,Urban Ramen,604,4.0,42.35187,-83.0608,$$,48201
n_QyiAUeW8cVNfVvA3GpdQ,Vertical Detroit,387,4.0,42.33633,-83.04716,$$$,48226
4U4GNiJgT4laE9VHmodvJA,Marrow,240,4.5,42.35852,-82.99882,$$$$,48214
2vPro9dmObwcWcs4gdU_3w,El Barzon,471,4.0,42.33092,-83.11107,$$,48210
le3t2klC9l-Xc3Uym0i6GA,Cornerstone Barrel House,279,4.5,42.33502,-83.04883,$$,48226
lZyf7m2XxI5b3YM0vOLCXw,Maru Sushi & Grill Detroit,440,4.0,42.33059,-83.04832,$$,48226
q2BSrIE_FQjQGtw6_N5C5Q,La Feria,383,4.0,42.3502,-83.06276,$$,48201
kvG8Rsie9vE7lQqOvUxRrw,Honest John's Bar & Grill,505,4.0,42.34797,-83.06394,$,48201
KYoip_XCktFrFQl6pNS8Vw,Jolly Pumpkin Pizzeria and Brewery- Detroit,463,4.0,42.35126,-83.06525,$$,48201
48UU-FaqYEP5pwu4KfO6Ww,Spread Detroit,119,4.5,42.35063,-83.06382,,48201
XMieCaQ9NofNrzSl9FsOqg,PAO Detroit,224,4.0,42.33632,-83.05307,$$,48226
SGUzqurQ2jEuuk8kpUEAoQ,Avalon Cafe and Bakery,219,4.0,42.33255,-83.04801,$$,48226
XNU8Im9LGzs7RT6gKdL_kw,Hygrade Deli,128,4.5,42.33164,-83.09401,$,48216
YzaGq6tIR4pGdc7BGPh78w,Bangkok 96 Street Food,111,4.5,42.34422,-83.06156,$$,48201
8x7oLtLhFjDwDVVhr8Zj5w,Los Galanes,276,3.5,42.32354,-83.08446,$$,48216
CEEMOAb23oemjDpNEiGStw,Midtown Shangri-La,262,3.5,42.35399,-83.06531,$$,48201
m_jDZuBDEonJLtzB9L6X5g,Detroit Beer Company,445,3.5,42.33583,-83.04883,$$,48226
2Gbql_loKmYhuOE40QyVsA,The Block,256,4.0,42.34971,-83.05961,$$,48201
OdOc7THMVhUt2EyegEwLAA,Saffron De Twah,68,4.5,42.37633,-83.01584,$$,48213
H5WDC5Dckm202TIqhweFNA,Kuzzos Chicken & Waffles,681,3.5,42.43413,-83.14193,$$,48221
K-M8mX1aMXfqNZ4BufvaUw,PizzaPlex,81,4.5,42.32,-83.0968,$$,48209
MG_dEntWnCwiyczRERCc1A,La Lanterna,199,4.0,42.33304,-83.04903,$$,48226
ew8mvzp_BagM2AUIzdCtiQ,Tommy's Detroit Bar & Grill,124,4.5,42.32768,-83.05358,$,48226
TkLcUfsNpPMCf-ksOv7Yeg,ima,99,4.0,42.35582,-83.06632,$$,48201
k8ZwQVBv7xpsDGgODG0BhQ,BARDA Detroit,66,4.5,42.3485,-83.08786,$$$,48208
8_f0rZ3vRDGhk0xogzRZmQ,Harmony Garden Cafe,108,4.5,42.35263,-83.06987,$,48201
4oeL2UZaD9IzIdarbIqfeA,The Congregation Detroit,53,4.5,42.37739,-83.10052,$$,48206
U7Wgy1k6MpZMiL3to0S5ew,Socra Tea Detroit,67,4.5,42.35449,-83.06117,$,48201
bcog1tajg2C2u0co1RW1oQ,El Rey de Las Arepas,62,4.5,42.3353,-83.14082,$,48210
MlKmMAF_rFjgy0nX_fk8Mw,Cork & Gabel,139,4.0,42.33111,-83.07941,$$,48216
Oc5IjPyWE9dshSdRV8J2wQ,El Taco Veloz,59,4.5,42.31892,-83.11005,$,48209
LXY2-zJxovRaiWixlLmRWg,Frita Batidos,86,4.5,42.3379,-83.05314,$$,48201
JbeFCVw4IkXK6pV6HA8O4Q,American Coney Island,441,3.5,42.33151,-83.04867,$,48226
eFB-ZId9NK-6p4uwyuAwiw,Jose's Tacos,142,4.0,42.33554,-83.04668,$,48226
Of_SRT4D39xbcOlYs1kAeg,Cass Cafe,256,3.5,42.35354,-83.06479,$$,48201
uj0R7Wvdww5H84kp5q955A,Motz’s Burgers,84,4.5,42.30272,-83.11348,$,48209
TaG8eAwHsc5by2klFPxD1w,Mike's Famous Ham Place,65,4.5,42.33163,-83.09438,$,48216
cPOkQokl5iK9qKcLr0r17w,Bakers Keyboard Lounge,222,4.0,42.44534,-83.14161,$$,48221
bj91BZDt44jIE_1DCDrU_Q,Roses Fine Food and Wine,329,3.5,42.36402,-82.97734,$$,48214
a2r0rQ1ub9VM2XSAwPeA2A,Original Gonella's,88,4.5,42.29007,-83.14544,$,48217
RYxXBba98PRqasYkmibFEg,The Red Hook,82,4.5,42.35522,-82.99706,$,48214
_GL1Lqbg15Gb0anjqcMmJg,Woodbridge Pub,239,3.5,42.35399,-83.08012,$$,48218
HTCstEV_jNFvRn0Tw40vWg,La Noria Bistro,73,4.5,42.33104,-83.11076,$$,48210
X9Uep5qXDC_GKuX9XvXEbg,Red Dunn Kitchen,179,4.0,42.327,-83.06504,$$,48216
POpTWoya0ebFqzhcHAu2VA,Taystee's Burgers,411,4.5,42.32938,-83.16195,$$,48126
z_Xl1wZbVk5L7i7_DIbqJA,Telway Hamburgers,107,4.0,42.33139,-83.12787,$,48210
0BcmouUOqQrQn_frFtjLcg,Evie's Tamales,139,4.0,42.32317,-83.08574,$,48216
ioFyTODz0m_z8dTIidyq5A,Bash Original Izakaya,66,4.5,42.35297,-83.07947,,48208
keILszaEtKOsvaNyHcbC9w,Little Caesars Arena,263,3.5,42.3406,-83.05484,$$$$,48201
8Pi4ES2PUynNKgOIMhnwcw,Grandma Bob's,76,4.5,42.33113,-83.07584,$$,48216
Xq635a2o33-VAzhaHuE2aQ,McShane's Irish Pub- Downtown Detroit,153,4.0,42.33175,-83.06667,$$,48216
X5C_InLvl2PtR9gmWC1HSw,City Wings,113,4.0,42.36734,-83.08046,$,48202
vUAznKs_8crdw7gYkBqSJg,Good Cakes and Bakes,97,4.5,42.43457,-83.14181,$,48221
JxCg9rR20YG7pyrZ38cUDQ,The Kitchen by Cooking with Que,19,4.5,42.36946,-83.07309,,48202
zY1OTIDP8j1ZyepTVrT8MQ,California Burgerz,120,4.0,42.40708,-83.05597,$,48212
VrKr2SZBImFV79sXiO9IJQ,Bert's Marketplace,200,3.0,42.34735,-83.04128,$$,48207
2V2mvrnT7HqvGBsCoax9OA,Lovers Only,133,3.0,42.33383,-83.04965,$,48226
4sOMeUSY_mMPmjCaIYsdWw,Toast,660,4.0,42.46409,-83.13653,$$,48220
zkoB94aF87JvcoyUSL4UZg,The Ghost Bar,42,4.0,42.35275,-83.06215,$$,48201
bfl6RNTBfyXunxNJT3zdnA,El Nacimiento,80,3.5,42.31362,-83.12233,$,48209
ITsDoLYGtRBhKHzSSgqq0g,Fat Salmon Sushi,88,4.0,42.40085,-83.06097,$$,48212
2_arAchX5g9VbUcUYLa5Qw,Bucharest Grill,140,3.0,42.36689,-83.06847,$,48202
X-gzn4k2BGNfQa34ckPq9Q,Go! Sy Thai,90,3.5,42.33305,-83.04903,$$,48226
TJ_POk8hrMCE5u3On8M1FQ,M Cantina,370,4.0,42.32337,-83.17272,$$,48126
APYwE45amWbq_UmDbKsssw,New Yasmeen Bakery,165,4.0,42.34419,-83.18082,$,48126
KIgd96wBrHW5JslTjzDDzA,Jose's Tacos,23,4.5,42.34662,-83.03922,,48207
Fxf45YINvhafoNaZTiCb2Q,Jamaica Jamaica Restaurant & Bakery,59,4.0,42.43027,-83.21587,$,48235
VLeN8FYSLFZ8g7Oe0J_GWA,D.PRIME Steakhouse,34,4.0,42.33219,-83.05967,,48226
_pHpCqKj0QHxni1eoKeuEg,Alcamo's Market,139,4.5,42.32049,-83.17617,$,48126
9rqmoNhTI5Sd7zI2UYe-mA,Tai Fai Restaurant,439,4.0,42.45988,-83.15765,$,48237
0D6zxlfaDbIJTWYwZ4mFhQ,Sullaf Restaurant,18,4.5,42.43231,-83.11156,$,48203
fQ2yw_1jJo1INWqD-eiJzw,Delite Cafe & Deli,55,4.5,42.40072,-83.05779,$,48212
2B0BkbdaaKG_usKP6G1f7w,Tuhama's,106,4.5,42.34417,-83.16474,$,48126
29UceaE1nlZ6Y2ieizp8VQ,Bea's Detroit,24,4.5,42.34691,-83.03796,,48207
_VoowSRomCi9jvl0Qf4dHQ,Frenchy's Poutinery,104,4.5,42.31658,-83.03862,$,N9A 4J1
bd3ZE5iuzSix0EpG-VGobg,Lou's Deli,65,3.5,42.41722,-83.1529,$$,48221
mpWxEdyzFqzmVJ055VJ05Q,Bookies Bar & Grille,136,3.0,42.33687,-83.05552,$$,48201
8MFeM-m8JPaXTaLKXW2b5g,Otus Supply,476,4.0,42.46104,-83.12993,$$,48220
G85S1qea7RdPoZp1lBWzyw,Camino Real Mexican Grill,39,4.0,42.3042,-83.11812,$,48209
fb2TGeYOov5W4CUP_nYBqg,Buddy's Pizza - Downtown,97,4.0,42.3362,-83.04954,$$,48226
ptVpa7VizjET4vicNhkbKA,Vicki's Bar-B-Q,51,4.0,42.34454,-83.10487,$$,48208
2zHyxn8w_jIJbjibwIUgoQ,Penny Red's,79,3.5,42.33487,-83.04828,$$,48226
_1BOsEpRejBytRsTTeZnBA,Mocha Bistro,169,4.5,42.3202,-83.18361,$,48126
aFHUpogq8VyA6YHvHifC5w,Remas,55,4.5,42.40147,-83.06054,$$,48212
haFZK5ZlUI-8XEx_mDtZDw,Drought,25,4.5,42.3308,-83.04791,$$,48226
kPUW4CeGVhxbgpg5Jyfs4w,Mac Shack,91,4.0,42.34808,-83.04249,$,48071
xLrrCIyJTnMuWWxghoDsew,Louisiana Creole Gumbo,90,3.5,42.34918,-83.03456,$,48207
pYd5Z0xD0x_xVg7dNUlK6Q,Frank's Deli & Grill,41,4.0,42.35063,-83.04353,$$,48207
Ow9Wq1kIF8THJOS-_dL8Kg,Food Exchange,39,4.0,42.39004,-83.0168,$$,48213
y8teatlf8lrTdRk2F6BKDg,Rincon Tropical,59,3.5,42.33115,-83.12362,$$,48210
_XStA4s3fMi6ouzvMDeyYw,EastEats,44,4.0,42.36945,-82.95727,,48215
ydlAFK02_qheuc4zv3dhkA,TAP Sports Bar,207,2.5,42.33358,-83.05904,$$,48226
aZS1KDWQ7alvztYG9dQDNw,Christine's Cuisine,347,4.0,42.46131,-83.12403,$$,48220
1KvjJYeZQS-bYVV1hQt2zQ,Arabian Village Restaurant,57,4.5,42.30245,-83.14585,$,48120
LvQs27tXy3Zen_fbyGirKw,Craft Heads Brewing Company,44,4.5,42.31725,-83.0398,$,N9A 5N8
4lsrJbWguhR2V8v5LCzbcQ,Saucy Brew Works - Detroit,39,4.0,42.34345,-83.05243,,48201
F595EU6bnrL_r2VsABP3kQ,Tacos el Toro,13,4.5,42.33063,-83.12756,$,48210
FGPQd8GdG1zy7X0r1kaDIg,Inyo,398,3.5,42.46103,-83.13521,$$,48220
n6A4Oj4PG4K0b1WJZfiFbA,The Blue Nile Ethiopian Restaurant- Ferndale,251,3.5,42.46017,-83.14175,$$,48220
iXg5dKVERTBGlVsqEez_5w,Cobb's Corner Bar,36,3.5,42.35062,-83.06382,,48201
s1EvatUyz12BoWVC3EbK2A,Promenade Artisan Foods,8,5.0,42.36989,-83.07757,,48202
EKL28BewkwaF3webb9mWtg,Rafic's Falafel,97,4.0,42.34133,-83.17692,$,48126
fyy4GePlY1RGMDmJuieazA,Tropical Hut Philippine Cuisine,30,4.5,42.31472,-83.03488,$,N9A
KHlKb8cN06Ui0yVfUqfF8w,D Motown Deli & Food Truck,17,4.0,42.36397,-83.02405,$,48207
y-c373JyJ9Qt5Sz5rhUqMA,Uncle Rays Potato Chips,15,4.5,42.39227,-83.16342,$,48238
_wmv-QTEUeVYXK8Z1Xh4mA,Fork in Nigeria,23,4.0,42.43337,-83.1414,,48221
hN80MeCUzockQKlVq171Aw,Fredi The PizzaMan,77,4.5,42.2853,-83.18432,$,48122
W91tw66UP2B7id0BDJmKQA,On a Roll Sushi & Sliders,33,4.5,42.31902,-83.0387,$$,N9A 1G5
TwrNCe1stTm3FhtO5ViMGg,U of D Coney Island,16,4.0,42.41036,-83.14018,$,48221
Le7nYztMkOkG2oEs4Y6b9A,The Manchester,60,4.0,42.31479,-83.03684,$$,N9A 1B7
1uKGRJq8svQc1LCRNPzvzA,Top China One,35,3.5,42.34484,-83.05636,$,48201
ZcbVv0q5eJA4eOe5vSatSA,The Twisted Apron,107,4.0,42.32245,-83.01344,$$,N8Y 1E5
Na_PD_Xb5ZIzTY_bpqeS-g,Rock City  Eats & Sweets,13,4.5,42.39367,-83.00623,,48213
5cd02Zp9i9afoW0LIEpvNg,44 Burrito,50,3.5,42.44499,-83.18506,$,48235
H9SO_FbXfatGTICocIudhA,ZamZam Restaurant,51,4.0,42.40615,-83.05535,$,48212
mOYuUsR5ZQd7N7N5yG6V9w,MAZAAR - Downtown,75,4.0,42.31665,-83.03828,$$,N9A 1A6
cDfPxAWob6N1BhaZRzq0CQ,Golden Chicken,45,4.0,42.34437,-83.17261,$,48126
mkk9gKmV-_52jZErDWUnog,Taloola Cafe,43,4.5,42.32471,-83.01287,$$,N8Y 2L4
TDZD1aNzR9qBA06B8fZr8w,Olympic Grill,29,3.5,42.35614,-83.06563,$,48201
ObdWy62I-esyaWs7T1Osqw,La Shish,161,3.5,42.32429,-83.16917,$$,48126
UqfJtbIIddfamdNtHtfDqA,The Motown Bistro,101,2.5,42.34743,-83.04143,$$$,48207
bFmP_S4NUUKNIQ-RPhOV-Q,Legends Grill,26,4.0,42.36644,-82.97232,$$,48214
LWH5vAUTrWemHqTWIkZ83g,Paul's Pizzeria,16,4.0,42.31264,-83.1235,$,48209
FbL5farhkrVxSWj4BHfYUg,Noah's Deli,70,4.0,42.3201,-83.18401,$,48126
wXt80jVhnn6saTKRIyzN3A,Bubi's Awesome Eats,77,3.5,42.31586,-83.04637,$$,N9A 5R5
RfyP-TqHPzNOINVQk_uvJQ,People's Pierogi Collective,16,4.0,42.34887,-83.04107,$$,48207
t-JFVLfIL5NGtog4p0tIQg,Assaggi Bistro,132,4.0,42.46064,-83.13895,$$$,48220
duDZQpSRaJZAFlIQZHQlyA,BabyBacks Open Pit,23,4.0,42.43169,-83.14396,$,48221
mbTfvUB5hZF1sZFUnQuvZQ,Red Robin Gourmet Burgers and Brews,55,3.0,42.32931,-83.22245,$$,48228
zLa3tBRTY9WtQ1nC0lmX_A,The Emory,397,3.0,42.45988,-83.1335,$$,48220
pUazo9hE74hzrU1NFKLs3Q,Asian Corned Beef,42,3.5,42.43096,-83.19296,$,48235
y0kxWdbQVUrkS2KlmOnnOw,Parks Old Style Bar-B-Q,79,2.5,42.37378,-83.06812,$$,48202
ADoDFQzcwfFV5DrQJSnVJQ,MotorCity Casino Buffet,35,3.5,42.33905,-83.0685,$$,48201
WHqsoWWzUdl9Wp40Ejj3ww,Arbeel Kabab,54,4.0,42.33296,-83.17673,$,48126
rr1l0aTQHIxYkUecXXvsow,Fresh Fish House,26,3.5,42.44549,-83.16229,$$,48221
BNsv24P1RIQ1LRbK2JCjKg,Pizza Connection,80,4.0,42.45505,-83.10378,$,48030
PgRuCNpSHxuYxxm8vkLypg,Mike's Kabob Grille,50,3.0,42.33081,-83.04791,$$,48226
Ly1IdVoz56sr48yWhTrAJA,Grandys Coney Island Restaurant,25,3.5,42.38578,-83.06879,$,48211
Km_uXG1PAvUOt6xtdMS3SQ,The Sushi California,49,4.0,42.31741,-83.04052,$$,N9A 5N9
H5EYLkJjovKa1svLDX504w,Epicurus Restaurant of Wayne state,35,3.0,42.35614,-83.06563,$,48201
6cFOejCg6FDVwtVyXRTTKg,The Lodge Diner,53,3.0,42.33924,-83.06718,$$,48201
dlr-gGpLvuZOhJSwSU23BQ,Grill Room at Detroit Athletic Club,15,4.0,42.3375,-83.04729,$$$$,48226
cldOK7m0TAVe7W23u4f7Ng,The Barrel House,16,4.5,42.30207,-83.07524,$$,N9C 1A6
70srABMzQG61xEzTWwjJPQ,BIGGBY COFFEE,30,4.5,42.30701,-83.18842,$,48120
iuzViA_cTjFhO57jCSI5Dg,Sun Sun Restaurant,14,3.5,42.41797,-83.10607,$,48203
NbhUi8rqcT6R6haf7EDNUQ,Yoshi Hibachi Grille,45,3.0,42.40165,-83.18831,,48227
BxKSb01c9VVKxft7zm900w,La Rosita,14,4.0,42.33486,-83.142,$,48210
cSBzWbbtJI_QAhIfgnS-7Q,Sky Lounge Restaurant & Cafe,134,3.0,42.34404,-83.17345,$$,48126
oBBwpZr9LaZxLZxSaegw1w,House of Shamrocks,55,4.0,42.46447,-83.10373,$$,48030
55Y3N0J0nUVtSL2zNI2AVw,Starter's Bar & Grill,39,3.0,42.37246,-83.22121,$$,48228
fMw5KizPpdtlobuGIaxO9A,Byblos Cafe & Grill II,38,2.5,42.35557,-83.06617,$$,48201
Fq1a4zuZ4uNH0AW0_WFvzw,Lucky Dragon,56,2.5,42.33815,-83.02043,$,48207
rOInALLIBme0k76aXM3GKw,Lile's Sandwich Shop,36,4.0,42.3217,-83.17847,$,48126
whMSbux2pZ-LMgHaaMMEOQ,Amicci's Pizza,50,2.5,42.32235,-83.09013,$,48216
MgAsPMSM4l64QXlK66ikAg,La Guardia,31,4.0,42.31901,-83.03876,$$,N9A 2V3
1NRojEPHfjQdGh_N5HIIiQ,Shorty Bell’s Pizza,6,4.5,42.33363,-83.05031,,48226
2dlvNS2MSlbhCYb3TS_fDw,Mezzo Ristorante & Lounge,28,4.5,42.31316,-83.02267,$$$,N9A 3Y4
bTAWbiGGy2UmUHUhnCjasw,Delite Cafe Deli Detroit,11,4.0,42.35423,-83.05751,$,48201
eXd8tcSaM0HStbPv_4YObg,Pik Nik Basket,32,4.5,42.45996,-83.15777,,48237
920qjIlYqx7XPFAh_q7KGQ,Ford Patio Bar & Grill,18,3.5,42.32927,-83.22055,,48228
sH1-Lca69xHZiKwoYag9gQ,Woodward Ave bar and grill,6,5.0,42.39479,-83.08928,,48203
nRf5bVtThFpkctyPJcA_gA,Lunchtime Detroit,13,3.5,42.37002,-83.07587,$,48202
_oEzT92XYbiRRCflcD9Zvg,Hello Shawarma,15,4.5,42.40848,-83.05701,$,48212
LaHzq-dL6Cl7xFKAF_GaEg,Haneeth House,35,4.0,42.34332,-83.18747,,48126
6z-SLA3D3JmyRuZUPGZFfQ,Jerry's Pizza & Barbecue,23,3.0,42.37507,-83.13931,,48204
i-pfJKFe48Oc_agPvoGRPg,Caesar's Coney Island,10,4.0,42.34337,-83.19776,$$,48228
HFnr_UpThvMu7qeiBXRAKw,Joe's Top Dog Restaurant & Bar,30,4.0,42.32293,-83.17435,$,48126
MZkWV4ImBXLHFuMQ58DYdA,Salvatore Scallopini,87,4.5,42.4643,-82.95864,$$,48021
NTG4tbcIHFqlixnAfKXvww,Zaytoona Mediterranean Grill,68,4.0,42.32958,-83.20311,$$,48126
-FmYbJ3X8LrhqodoFRnWrQ,Papa's Pizza & BBQ,19,3.0,42.36555,-83.08702,$,48208
GLEx2cspf1qvStS708S6NQ,Eastwood's Grill & Lounge,18,4.5,42.31968,-83.03879,,N9A 2S4
mas1oQfR6dbx4HBxJyupfg,Sheeba Restaurant,31,4.0,42.30308,-83.14574,$$,48120
Y98rkoJCMNfR3xwoZJACfg,Heavenly Chicken and Waffles,5,5.0,42.44555,-83.15423,,48221
cVFXGNMHEipnAUCHhR2vVQ,CaféDIA,8,4.0,42.37706,-83.07724,$,48202
U5fSwbnH8ZfIHUB8AM4Lfw,Sir Cedric's Fish & Chips,27,4.0,42.31659,-83.04411,$$,N9A 5P8
K5YajdRRkBuK0iPioSxXnA,Sweet Soul Bistro,45,2.5,42.41631,-83.18172,$$,48235
8-XzFGbKmN0e6pfhT1mfJw,Ronnie Berrys Halal Meats,15,4.5,42.30323,-83.14531,$,48120
gJrpZzZ04Wq_yrLLKXlL1Q,Barcade,15,3.5,42.34739,-83.0658,$$,48201
ERTnbYeoPWB-9aGjDDPwig,Pink Flamingo To Go,6,4.5,42.42174,-83.1074,,48203
jUpeaR9vOY1J5zzWOn5GEw,Simon's Prime Hamburgers,30,4.0,42.31796,-83.03914,$,N9A 7J2
I2DSNUiupnycjfPQlI0L5g,Bosco Lounge,130,3.5,42.46194,-83.13472,$$,48220
TiD1paO-NuTqHPIVJ8IjHQ,Nandis Knowledge Cafe,7,5.0,42.40351,-83.10987,,48203
7DqVNiQ2T512TbgEAQL-bA,BJ’s Deli & Cafe,5,5.0,42.44528,-83.16544,,48221
E7C5Nl-mQto97FngzQe_Lg,Burger Grille,10,4.0,42.38672,-83.19894,,48227
DFyJW57Iq0BCHXVGGeiOLQ,Royal Grill Restaurant,14,3.5,42.41558,-83.20528,$,48235
R8rjbnVh0s__2wTQB7uaBA,Chita's Nefertiti Bar,4,5.0,42.39487,-83.20344,,48227
k_wSiDIZYJOBJYdILFFbQw,Gus & Us Grill,105,4.0,42.27775,-83.21689,$,48101
yNhYUfHvsptryjXWZGqSyQ,D And D Cuisine,18,3.5,42.42121,-83.14116,,48221
X43gWZ9M5hHxwrSqh0UKeg,Capuchin Soup Kitcnen Conner Kitchen,4,5.0,42.3867,-82.96942,$,48215
dgePOeVxgz4oUamFJL15-g,Zukins Rib Shack,98,4.0,42.26732,-83.18257,$,48146
PpTVk1PpIuBl4SjVwl4Pjg,K&G Deli,7,4.0,42.39277,-82.98372,$,48213
DyTgo7UgYU05qrDHFfmURQ,Chefs Table,3,5.0,42.32833,-83.04835,,48226
pNNi33coe6s7JHkyj6Dp9A,Mini Restaurant,14,4.0,42.3161,-83.04437,$$,N9A 5P9
n1eCaLxl4iUnh_iCZ5jVKQ,Boostan Cafe Detroit,4,5.0,42.41904,-83.05187,,48212
N0-VEXJF_YB0XIsKxSJuIQ,Delphine Jamaican Restaurant,63,4.0,42.46433,-82.9748,,48089
i5GtkQ9fHak2FDyGReVvQg,Sub King Plus,12,5.0,42.27232,-83.01394,,N9E 1S3
YbnSjGV0WOGQyXU5497wZQ,Fish Station,11,3.5,42.27027,-83.16069,,48217
wX8GWnLzEkWVs-QvLNzQ9Q,Luci and Ethel's,28,2.5,42.3337,-83.05437,$,48226
FPUnc3Oks54V1RPla5PY2A,La Musique Restaurant,25,2.5,42.37025,-83.07472,$$,48202
a30Js5u599eKXiSHIbrI1w,The Pita Post,22,4.5,42.46084,-83.11269,,48220
NFu_TReM3sAyAfETJDYoSA,Jolly Old Timers,3,5.0,42.35272,-83.06811,$$,48201
u7QYR_QoORj65aJCUQI4Zw,Iraqi Bakery,6,4.0,42.34369,-83.21303,,48228
Dkhe6gq3moztLiw0YGe1bA,Riverside Pie Cafe,11,5.0,42.32843,-82.96976,$$,N8S 1M1
i0pqaZfpVQCWeQ5dpa-T7A,Nick's Gaslight Restaurant & Lounge,25,2.5,42.3338,-83.05293,$$,48226
_GuIGVAdW7GnbpPpXYzTiA,Curry Express,57,3.5,42.46261,-83.06518,$,48091
7cgY-o69GZoKCuANVvAsfw,Colombo's Coney Island Restaurant,11,3.5,42.31839,-83.10107,$,48209
dtME7qJzYd41dO9Ovh0yTw,Tahama Sandwiches,6,5.0,42.3995,-83.05095,,48212
iwkpdYn1khVBFRtdNsGf2g,Detroit One Coney Island,13,3.5,42.43208,-83.10259,,48203
vtoC07fiHVDGjgSgas4URw,Peet's Coffee,3,5.0,42.32953,-83.04608,,48226
QpbnyYzDR4k9w3O7y-1fgA,Ali's Pizza,15,4.0,42.40507,-83.05393,,48212
cB8E53ysVWgdiWW209EBdg,Oakwood Bar & Grill,103,3.5,42.29012,-83.20809,$$,48124
Fhd5h3sLaX81v8z9Rxg_7Q,Golden Bowl,87,3.5,42.45825,-83.18062,$,48237
GnxvKekHSPvkeHGSrtCZAg,Sisters on a Roll Mobile Cafe,3,5.0,42.34689,-83.05756,,48201
jxdaVDSNfJPo_uMzS0rV5g,Shrimp City Detroit,7,4.0,42.42976,-83.21833,,48235
oaCOSlQnoU7VAejdPGhFvA,Omega Hawg & Dawg Deli,54,3.5,42.46382,-83.12272,$,48220
RtEnekVFVw5KyIo0tGAFgQ,Detroit Blues Cafe,10,3.5,42.4376,-82.97619,$$,48205
aaqjqVk3ech_8wUOhbzcvQ,Java Hutt,92,3.5,42.46045,-83.13581,$,48220
IU_Nrm4Zjxy3tz0RkA3PEw,The Foundry Pub,29,3.5,42.31548,-83.0381,$$,N9A 4L5
RbwoW3EZL7_3bY16kgec5Q,Spacecat V-stro,18,4.5,42.46031,-83.13735,,48220
ZkJKAU-acd4fI01sYj_OrA,Nevada A Coney Island,5,4.5,42.4261,-83.06239,,48234
PJicP7YTzdmQvaCGYL6KLA,Pho Maxim,32,3.5,42.31389,-83.03788,$$,N9A 4L2
JmqiokkGFWmgeyyIlrDKaA,China House,13,3.0,42.31885,-83.09752,$,48209
mJsrJ0urXYxfLfmwVxWzUw,Hawilo Grill,5,4.5,42.33954,-83.19641,,48228
Mno5jGeHxmkT3BU_4Um5_A,Dearborn Pizza,43,3.5,42.34416,-83.18439,$,48126
BSq1bR8goO8iu6Cxc3C8Hw,New Center Grill,18,3.0,42.37034,-83.07628,$,48202
drUjUWyusEuZvhVeuGrqDQ,Little Icy’s Luncheonette,3,5.0,42.4069,-83.22361,,48223
j3TQelJG4sNqnpHlUDh8KQ,Chase Bakery,9,5.0,42.32987,-83.18554,,48126
bBt-mgBC7RixOzMqy646Bg,Sorrento Pizza,44,4.0,42.46298,-83.02175,$$,48089
SJOdz8rWziFmvJyF-f-W-w,Bibim To Go,20,4.0,42.30559,-83.06058,$$,N9B 1K2
1HHMUF1m8Lg95edlGZ9VTw,BIGGBY COFFEE,26,4.5,42.46067,-83.1437,$,48220
QgrDslUn9u7FchPMJixtvw,Zoup!,12,3.0,42.32959,-83.03953,$,48243
DrZVJrQl2eo1yX_zG0588g,Value Pizza,5,4.0,42.35265,-83.07444,$,48201
G1DSdyFv5GPt_-GylnM9xA,Spicy Bangkok Cafe,28,4.5,42.27956,-83.21222,,48101
gz4D0TDiog8-4gT6fn9h5A,Coolidge Cafe,59,4.0,42.4602,-83.18058,$,48237
qkLncw8ixXeXqhjVGeL2lg,Capri Pizza,26,4.5,42.27334,-83.01252,$$,N9E 1S4
IJloU6hXFa4J3smPzgNXaw,China One Chinese Restaurant,79,3.5,42.46169,-83.10445,$,48030
3EbHo2T6vv7NXGQI8DXmLg,The DragonFly,13,4.5,42.3107,-83.00941,$$,N8X 2G3
buXFu9smiTbY7XJI31JAjQ,Suzie's Grill Cafe,19,4.5,42.2844,-83.01979,$$,N8X 1L9
e4oVcfda_yvmy-O33T5orA,Roast 'N Toast,16,4.0,42.31221,-83.00517,$,N8Y 1R6
pZAz20f3lZ8pQu9uP6bA4w,Tim's Coney Island Restaurant,49,4.0,42.25948,-83.21045,$,48101
LA8IrTNQbVCDVR-obp5bIQ,Wild Wild West Wings,13,3.0,42.41567,-83.19999,,48235
2Z8w2nPvvtTti3TibIGIWg,John's Grill Coney Island,5,4.0,42.36628,-83.16505,,48204
F3tTUfPt8aNh5C9jHZH4qg,Sweet Dreamz Creamery,3,4.5,42.35286,-83.02984,,48207
hQUdkc5VdtpDaHuGTyHv-A,Caesars,22,3.5,42.32013,-83.03351,$$,N9A 7H7
5cQPZ_4ds-RZ8WOGV0dhlQ,Tropical Smoothie Cafe,88,3.0,42.46308,-83.13577,$,48220
JUc2GcMlPCt8ImoQ27cMGA,New Akashi Restaurant,3,5.0,42.34384,-83.20185,,48228
c-4S9no0X3LMShLJQG185A,Nu Deli,15,4.5,42.46092,-83.1355,,48220
psMPF1_5-R89KgjOYp8PEQ,Uptown Restaurant,11,4.5,42.29782,-83.0165,,N8X 2S1
c4FrztgpfSDuvT7BksY64g,Papa Joe's Market,4,4.0,42.36761,-83.0847,,48202
gey8IaOV8g4uDfyl9GJ1Pg,Fresh Corner Café,2,5.0,42.34494,-83.06133,$,48201
wCPfm_vPkzQ0Z6HyDfRs0w,Windsor Penalty Box,37,3.5,42.30166,-82.99437,$$,N8W 3P5
SqW_WCC36MDRg0t_EPqNgA,Chrome Bar and Grille,11,3.0,42.33573,-83.04489,$$,48226
aeXA0IYWL7qjJ5_4ZXdjpw,Shinola Cafe,2,5.0,42.35078,-83.065,$,48201
U65gYGOSAKfhSfU3hxCfqQ,BIGGBY COFFEE,14,2.5,42.36762,-83.08461,$,48202
LirTSSVO7qvfDb5b6l_9bg,PV Lounge,18,2.5,42.33562,-83.04583,$$$,48226
TzgFPpSH9aTxjjB5jAntrA,Brooks Brewing South,29,4.0,42.46193,-83.13608,,48220
fbOjeWCycmfDueUutsFpfQ,The Burger Truck,5,5.0,42.32801,-83.1569,,48126
3pMKZnS8hSR0fehamehgFA,Rise N' Shine,17,3.5,42.31476,-83.05042,$,N9A 5S2
26Fn0n32J7i66N3L5nT-ow,Panda Chinese Restaurant,12,3.0,42.31169,-83.12716,$,48209
PTFYMu06YkGHjjsv7YpBCg,Earl's Diner,32,4.0,42.46138,-83.11222,,48220
Hl27ILsm-EdR00HvQLZJOQ,Midwest Grille,5,4.0,42.39062,-83.12893,,48238
qBP-S1N9NzuMJYPjRfl_WQ,Peking Chinese Restaurant,4,4.5,42.44218,-82.97338,$,48205
XSvUxs-SdAYVpMFofHLXnw,Primos Pizza - Oak Park,65,3.5,42.46049,-83.16382,$$,48237
3Pp6D47hICq1huKGfEGSsw,9 Oaks Grill,31,4.0,42.45872,-83.18183,$,48237
op6Zhv1Gao48B9YSS0L36A,Alqamar,15,3.5,42.4017,-83.0517,$,48212
wU-CnFiLraMHx_ar5rgwAQ,Grand River Deli & Burgers,16,2.5,42.33932,-83.06716,$$,48201
OSnHMDLowj3HwzcddakLWw,Cheech's Chicken,3,4.5,42.34464,-83.03838,,48207
jQxVHlNjtOXtJZVxJhJ7cw,Mr. Corned Beef,21,4.0,42.44658,-83.158,,48220
QR6hFLp2bpYgpTSJASxLsA,Lonchería El Palenque,5,4.0,42.31583,-83.11656,$,48209
yflSDUkLEhjCu4isq123UA,Daawat,21,4.5,42.46322,-83.03106,,48091
OxYaMHH3aYtHKWdYbJuGLw,Motor City Coney Island Restaurant,7,3.5,42.41828,-83.09476,$,48203
StJ0uL1SPoQhc13CHVUceQ,Sareini's Pizzeria,16,4.5,42.30618,-83.18774,$,48120
gWc9Kl2LXxOwl8Acj_7c9g,1000 Degrees Pizza Salad Wings,5,3.5,42.35647,-83.07254,,48202
hmNGNZf7EluE-fTMTc_tDw,Torta Express,2,5.0,42.32367,-83.0867,,48216
eKuD5gh8tCkTyuVgaUcEOA,Tai Hing,20,2.5,42.35785,-82.98621,$$,48214
l6Kd86h0A_OTbcxB52h7lA,Edison's,33,4.0,42.29695,-83.22835,$$$,48124
Fz3Cj3Xqt1cYNuCyxyz7Ug,Galaxy Coney Island,10,3.0,42.38448,-83.17865,$,48227
8WCt6Vcoaa23LElWBTp3kQ,Holy Cluck,12,4.5,42.34387,-83.19104,,48126
vWfmiWklQlO2CTIbo5cHxA,Hops & Barley Bar & Grill,60,3.5,42.2806,-83.18908,$,48122
4CwankZImiv5IKpnkbf4Ig,Ella Mae's Place,4,4.5,42.27347,-83.15692,,48217
oYu980egRbRDGpqZ4sBsyA,Ananas Cafe,49,3.0,42.34064,-83.17689,$,48126
KZ6Sslp4jmdTQLBXEZvDtA,Forty-Two Degrees North,9,3.0,42.3352,-83.03673,$$,48243
g5crulY1Tv2yFJJqljJA2g,House of India,20,3.5,42.31704,-83.03893,$$,N9A 4J1
DyuNFX-RbclTBBJk9LUyTw,Cannelle Matt Knio,169,4.5,42.33364,-83.04952,,48228
PWkqo_whZ0qhLTpLsi5xjw,Mootz Pizzeria + Bar,277,4.0,42.33443,-83.04693,$$,48226
A7qhrIwaUgdwcLD44JY5XA,San Morello,421,4.0,42.33439,-83.04848,$$$,48226
iqHPET9Z17ugMjorPyDfIw,The London Chop House,313,4.0,42.32927,-83.0476,$$$$,48226
bcpTLnLbpf711AuBxO_mLQ,Prime and Proper,477,3.5,42.33229,-83.04931,$$$$,48226
8I1Ja8TbfEN0UOWocP0usA,Cliff Bell's,586,3.5,42.33681,-83.05272,$$,48226
9zI10-FuCxKqd0FAHwUFRA,Lumen Detroit,367,4.0,42.33452,-83.05469,$$,48226
dwoSwJ1MkLjCgoy2adC1UQ,Downtown Louie's,282,4.0,42.33488,-83.05014,$$,48226
zZldbS9xvdEQuMBzOVwzvA,Olin Bar & Kitchen,109,4.5,42.33456,-83.04809,$$$,48226
QUPAXavtWd6LKnvsWV6ywQ,Detroit Shipping Company,323,4.0,42.34402,-83.06146,$$,48201
ga6XUaH06FXz3-5kGxRZ4w,Rusted Crow Detroit,379,3.5,42.33649,-83.05241,$$,48226
I-CjgKtXqZ6ccuDFg-czzg,Leila,131,4.0,42.33325,-83.04999,,48226
aimziXD36KyHZH-ERGv5uQ,Calexico - Detroit,488,3.0,42.33291,-83.04751,$$,48226
rjLf7nlwmw10w3--wxR2tw,Caucus Club,145,4.0,42.32956,-83.0476,$$$,48226
TJQYqfPzVCbh7Op6GxQixQ,Iggy’s Eggies,111,4.0,42.33388,-83.04928,$,48226
F5n71dADAgUqYPOqFkQg9Q,Rocco's Italian Deli,134,4.5,42.34647,-83.06157,$$,48201
YF4XiXkSFwWSUW86RrORvg,Luigi's Original Restaurant,208,4.0,42.56926,-82.83975,$$,48045
GMupHSbjOxy_9CAZdbpMvA,Gina's Cafe,216,4.5,42.55908,-82.86931,$,48035
UpF5QWWr79JhsO2Tw3h-zg,New Age Noodles,141,4.5,42.60115,-82.8761,$$,48043
NJlo89T6JR_zwrqdMhflpA,The Goblin,115,5.0,42.56198,-82.89617,$,48035
C87Dng1diXJAZXssI_D2kw,Brioni's,63,4.5,42.56867,-82.84033,$,48045
zsb_fap5JThEfE_TTUAApQ,Eos Cafe & Coffee House,206,4.5,42.51886,-82.87805,$,48082
iOUfwbBYHvSGoFwDk44CkA,Terry's Terrace,346,3.5,42.56604,-82.84216,$$,48045
LkrdR-3Cs7tC_20z_0EJAw,Gumbo's,136,4.5,42.60075,-82.87385,$$,48043
nm1aq9JCMJONNkNUojF9Zg,Juan Miguel's,322,4.5,42.62833,-82.90382,$$,48038
wO3wK9LiycFdhVBnwO92oA,J. Baldwin's,345,4.0,42.59891,-82.95058,$$,48038
wYGiyxNobrLFT-2PCl6ycQ,Pho LineUp,176,4.5,42.56632,-82.95205,,48035
7pkd3L_vqDltjmTWn8jWQw,River Rat Restaurant,94,4.0,42.5923,-82.81625,$$,48045
K1-fo-xN-sXo9porqzmYVA,New Asian Star,164,4.0,42.54079,-82.88243,$$,48035
MX0p-yHLhsRHMMyzfuqniA,Kabob Town,178,4.5,42.64556,-82.85285,$,48051
oQQt-qDnMIBnKswE_h3ovA,Asahi Sushi,361,4.0,42.60441,-82.95152,$$,48038
d_gsW8bfsPCayKY_4wUksw,Penne Lane,190,4.0,42.62897,-82.8678,$$,48036
Ykvtn0LUHBNNn4GU-DlEgg,The Sandbar,74,3.5,42.57112,-82.83545,$$,48045
y4BqOxOcIEqAqHFzJMeimw,Kabob Castle,141,4.0,42.54068,-82.90903,$$,48035
WGRBG27TY9xXO8-pyCO5fg,Bubba's 33,326,4.0,42.62899,-82.94406,$$,48044
PCzOpxDOxA07Dc7Ghws2mQ,Mae's,56,4.5,42.59837,-82.87854,,48043
dst8TJBdkl6hT1L35jUUjQ,Abby Lane,149,4.5,42.55345,-82.9486,$,48026
MSSy1B1KBdS-SevxAgW73A,Mr. Pauls Chop House,372,4.5,42.51464,-82.95287,$$$,48066
Zqj5ThFjp0ddF1TYiKeUvw,Hankuk Oriental Market & Restaurant,71,4.5,42.54463,-82.90636,$,48035
MTX0Xhdp21j38Kvz7ghzzQ,Twisted Rooster Chesterfield,289,3.5,42.63163,-82.85528,$$,48051
2ED7PFzgIg7EbooJyn3Ccw,Johnny Z's Pizzeria,143,4.5,42.5012,-82.89739,$,48081
sFyxvDS5Xb1qDuRPvCtQgQ,Thai Orchid Cuisine,100,4.0,42.59863,-82.87819,$$,48043
ZyPd6ziuS6-4Rmoy8urd8Q,Cooper's Hawk Winery & Restaurant - Clinton Township,334,4.0,42.62586,-82.94433,$$$,48038
yPxAJbNHi1tjpj5eRrQinQ,Eastside Tavern,48,4.5,42.59133,-82.86635,$,48043
yeudRDy8hLncnWrSzO9Hrg,Vinny's Brunch,119,4.5,42.62788,-82.9133,$$,48038
NcMmKE7113bTmP7oUw49nQ,Khom Fai: Thai Dining Experience,411,4.5,42.65669,-82.93707,$$,48044
MueaLchlWDRhThXHsKuUaA,Jimmy Dee's Restaurant Lounge,113,4.0,42.61842,-82.88232,$$,48036
Qml4D3h5KmEFqd9CxwfuPg,La Mia,92,4.0,42.61935,-82.8661,$$,48036
s5WQ1g-8Yf-NtaUUoC5AkA,Louies Ham and Cornbeef,49,4.5,42.59158,-82.8802,$$,48043
_Ql_cfAYYbXve6LwckRViw,Ms. Mary's and Pete Too,142,4.0,42.54722,-82.90362,$$,48035
GjpT7IGBQxp9ApQpMoKiKw,Emerson's on the Grill,71,4.0,42.61507,-82.88454,$,48036
bKfU4AsZS3cIs0vvEPn9Wg,Luciano's Italian Restaurant,279,4.0,42.58485,-82.95209,$$,48038
cMZpLbXa-kECNsdsoVTE4Q,Jillian's Coney Island & Grille,159,4.5,42.67278,-82.83209,$,48051
HPKg95iEOllS-wn4OyRUgw,Eagles Bar & Grill,184,4.0,42.67141,-82.82697,$$,48051
_I7vvRPNYu_P4KtYDkoVcA,Crews Inn,96,3.5,42.59504,-82.79097,$$,48045
8GfLfFxp8Y7LQSkLXw_0aw,Testa Barra Kitchen & Cocktails,302,4.5,42.65633,-82.93583,$$$,48044
YhwNKAQi5uxU-tC52LpXeQ,Engine House,96,4.0,42.59776,-82.89247,$$,48043
fTYq7vqlNuKbJc-VMaNLdw,Rec Bowl,43,4.0,42.59523,-82.87577,$,48043
mlo9DsoKrHZpy_AtTP2tTw,Madina Indian Restaurant,31,4.5,42.54,-82.88293,,48082
FvVq21EX-xPCcDSEEzSDMQ,Sam's Kabob House,118,4.5,42.61429,-82.95316,$$,48038
fPaIV1hNNwkjQ55Tuue8Mg,Karas Family Restaurants,69,4.5,42.49376,-82.89697,$,48081
0PKUMvZEl-7Md_KbLAtJCw,O'Halloran's Public House,64,4.0,42.59978,-82.87972,$$,48043
XLndFDYvavnHPT0bucYrNA,Eddie's Drive In,57,3.5,42.56363,-82.84574,$,48045
fFHCkj2tpv1aUd9_yvvxtA,Travis Restaurant,58,4.0,42.54953,-82.87373,$,48035
OkbJBO_4lK8enAM5wi8b6g,Naked Burger,122,4.0,42.6143,-82.95399,$$,48038
iRCoWfW6n0OzIsdzaeRcNg,Bath City Bistro,107,3.5,42.59855,-82.879,$$,48043
aDCRsxhRrEDfiHVfTlXA3g,Gaudino's,162,4.0,42.4981,-82.89802,$$,48081
gX5hhvETNGfFl-7nccbyaw,Spicy Bangkok Express,47,4.5,42.64278,-82.85345,$,48051
t9gvMLxekk8Ia2CAPcynbw,Thai Delight,156,3.5,42.62802,-82.91258,$$,48038
h3JM9eguwqxQcLO5B5ZGmw,Kuhnhenn Brewing Taproom,128,3.5,42.56199,-82.91704,$$,48035
BIDQ3-6q7QtORh8OpIh3ww,Lov-a Burger,91,4.5,42.66516,-82.84013,$,48051
89g3IB1DGMfId-tlNeMq8w,Square One Pizzeria,27,5.0,42.61261,-82.89141,,48043
eC88ERNOZoTnYe2Aq40HDQ,Michael's Family Restaurant,38,4.5,42.64363,-82.81532,$,48047
tdXGhkMYhm2twD4fEmJOVw,Leila's Lebanese Kitchen,47,4.5,42.59687,-82.95325,$,48038
EZE3c585J38WCW0sy8vzlQ,Grand Azteca III,156,4.0,42.54046,-82.93348,$,48026
SCpez41dpvERmT68NWQYLA,The Pita Peddler,47,4.5,42.64245,-82.85361,$,48051
WmVvQJVPMxZjIoIMojDm7Q,John's Family Grill Restaurant,43,4.0,42.59822,-82.89216,$,48043
lr0e8aH3xG57F2POGuxXMw,Old School Deli,87,4.5,42.52252,-82.94696,$,48066
NFBaXZ-lx1XSWgAh3ln1zA,Father & Son Pizzeria,61,4.5,42.67268,-82.83243,$,48051
4enzt1UxnXj4eSCpUGmMuw,Empire Chinese Restaurant,45,3.5,42.5714,-82.85096,$,48045
Qd2EEHUjpYuwBHcWN2TjEg,Terry's Sub Shop,47,4.0,42.55441,-82.89852,$,48035
cir6H6eHkQw9iL8e8U2W6w,Slaw Dogz,16,4.5,42.55919,-82.86906,,48035
4DKyBmCibeZ-KnF8AT7GVg,Carlo's Pizza,29,4.0,42.55485,-82.85397,$,48045
EUqt1edTv6Sdk6shESH_KA,Crazy Gringo Mexican Cantina,162,3.0,42.55288,-82.89979,$,48035
3d_GYN1peWS3xFFOk4wcew,Bentley's Roadhouse,45,3.5,42.59002,-82.82645,$$,48045
mCaBey5g7LnzRE6-gAYnAw,El Charro,287,3.5,42.53829,-82.95066,$$,48026
9EzMdUFUnDiCH15f7Uiq0w,Great Lakes,40,3.5,42.56808,-82.87093,$,48035
igr79iuo6dmWuUdRCz7okw,Mt. Clemens Grill,36,4.0,42.59797,-82.87757,$,48043
U_8hFzOBjU5-JTzKm8Dgpg,Bar Louie - The Mall at Partridge Creek,258,3.5,42.62549,-82.94414,$$,48038
HzpNzM2cuko5zi_bfbBqKQ,Carlo's Pizza,25,4.0,42.59041,-82.82712,$,48045
GjHW36iO4LfhTdxuqrNiEA,Detroit Style Pizza Company,132,3.5,42.50425,-82.89783,$$,48081
-tBGGIiUHLxzZEdyuzB8Hw,El Charro of Macomb,154,3.5,42.64493,-82.89929,$$,48044
YWt2h9wSRP-DMtMmbEDiBA,The World's End Craft Burger Bar,159,4.0,42.52362,-82.95335,$$,48066
rnG0tLvnz3B1TG4b_mfdEg,Krowl Family Kitchens,21,5.0,42.53981,-82.93408,,48026
sICnztNPLRHF_a_aHKTMbA,Ribs & Soul,26,4.5,42.58255,-82.88536,,48043
YOi8M2fjEvQO1LV29wSwfw,Lil Thai Express,42,4.0,42.56585,-82.89404,$$,48035
-BmbsLiQokKQXiHh1rMqcw,Polskis Pub and Grub,41,3.5,42.58206,-82.86861,$$,48036
wpICmL-9oFzbMRVvvjTRjA,Paco's Restaurant,99,3.0,42.58726,-82.86776,$$,48043
xs6zZ13DJBt_PQWdjztQCQ,Aspen Restaurant - Bar - Banquets,144,3.5,42.62974,-82.91906,$$,48044
D3JOY-AyZwZSPWLNd_dheQ,Your Mothers Bar,57,3.5,42.59831,-82.87811,$$,48043
h6i7IMfaHw2KKRjzsdb7AA,Rice 'n Roll,54,4.0,42.49692,-82.89797,$$,48081
YvdPA_dNW3gEd32IQkaDlQ,Taqueria El Compa,39,4.5,42.51727,-82.94108,,48066
HXoKLQmd4rPZWgaV_leAKg,P.F. Chang's,225,3.5,42.62653,-82.94634,$$,48038
ltC4sIvqmuiqMRpvJVtaLQ,Sajos of Clinton,103,4.0,42.56449,-82.95222,$$,48035
eBz3V8BJbhRsFwgr4nQpyw,Golden Greek,38,4.0,42.60802,-82.89546,$,48043
A5ODBr60roAK-_PEu1ef9Q,Poncho & Cisco,61,3.0,42.57093,-82.83574,$$,48045
GdODLv2DLjh9HtUt4hXxNw,Benvenuto,37,3.5,42.59182,-82.80983,$,48045
edLyagBSDXutD82wuEv_1g,BurgerFin,101,4.0,42.62593,-82.9476,$$,48038
o34biH_VjrjjHVOPSAWF0A,Abbibo,50,3.5,42.59885,-82.87882,$$,48043
GlN9FUM-FETNTTr5ifEBjQ,The Butter Run Saloon,129,3.5,42.49555,-82.89718,$$,48081
b4bmT4rTudtA2A5K480XYg,Bad Brads BBQ,80,3.5,42.56823,-82.91334,$$,48035
4r21WTRNNckyFjngad1Jfg,Paisano's Pizza & Restaurant,65,4.0,42.51455,-82.8988,$,48082
4XOgEKjsBF6A9Q7N3K3ODQ,Gim Ling Restaurant,132,3.0,42.52661,-82.89463,$$,48082
YGb0YBM3lAnRniVbcwU67g,New York Deli Restaurant,80,4.5,42.48,-82.9067,$,48080
AlGhsDXk5Wh5mgwK6PNgAA,Lake Breeze Restaurant,41,3.5,42.55483,-82.85342,$$,48045
14Rp1Cxs5fDt_CnBg2LI3g,New York Deli,44,4.0,42.59679,-82.95144,$,48038
ZqT4cMCD1HSlEJ1KyiYEHQ,Sugarbush Tavern,105,3.5,42.64457,-82.82904,$$,48047
F6nZmEMLr0C7Gya7ChZYiQ,Mike's On the Water,323,3.5,42.47193,-82.88334,$$,48080
RoBsPCa95uGXxx1GgL2RHg,Wuri Sushi,111,4.0,42.67248,-82.83235,$$,48051
ucu5kl1z_56X69C2FkrsJA,The Pantry,112,3.0,42.62926,-82.86781,$,48036
WuRpwNcVDy-6GqYzen9a6Q,Gnocchi Italian Restaurant,126,3.5,42.60481,-82.9526,$$,48038
_saCam11wj0TH7B6NDdVMw,Texas Roadhouse,124,3.5,42.52533,-82.91537,$$,48066
4G4-5AGfUs1FW_yAP_LNDw,Orleans Sports Cafe,59,3.5,42.59966,-82.87919,$$,48043
7AjAmMhEA2K_AfJV5pYnMA,Louis' Chop House,152,3.5,42.67047,-82.83707,$$$,48051
HeZGqZAV2U1ffybMN8v9Pg,WiseGuys Bar and Grill,35,3.5,42.5712,-82.87104,$$,48036
KCaYsrKifSakM-AZAk8IVQ,Bigtime Market,20,4.5,42.55418,-82.93105,,48035
52AQFXXQajU-5OePxnpqVA,Randazzo Fresh Market,89,3.5,42.56752,-82.9507,$$,48035
UeOHWNW8wGMcTtS7aLZf5A,Bobcat Bonnie's,94,4.0,42.62514,-82.9481,$$,48038
gcGcYK5YqTOSBwTdgGS3Dw,Brio Italian Grille,167,3.5,42.62656,-82.94569,$$,48038
N3GZS-uxtKsANPCkBEZQdA,Ping On Restaurant,84,4.0,42.60418,-82.95278,$$,48038
gsJ2vsQKIzPrgeSTKr3URw,Coffee Break Cafe,39,5.0,42.48003,-82.92023,$,48021
yK_IJ8-T9Sha1P17BhnhYQ,Tropical Smoothie Cafe,22,4.5,42.515,-82.89788,$,48082
D-F1gqfS2I7EZ7EmSrEVRQ,Cloverleaf Bar & Restaurant,210,4.0,42.47425,-82.95221,$$,48021
25yHIxFCsx16PC6_9Onbfg,Penn Station,67,3.5,42.62608,-82.86303,$,48036
CGHnqhh_1nkDA-S1EqHmNw,Detroit Wing Company,80,4.0,42.67417,-82.8334,$,48051
JVetCUw2T0b0oic2fFyL9w,Mixteca,14,5.0,42.628,-82.91261,,48038
ca0k3KQ1XsGlZT7mV8DhkA,Bangkok Cuisine Express,60,4.0,42.61462,-82.95306,$,48038
JuCrD_HZ8QZUYUpDdtUQxg,China Moon To-Go,82,3.0,42.54839,-82.87516,$,48035
HrrXt7PBGFDGE454Zz-FUQ,Golden Bowl Carry Out,98,4.0,42.64227,-82.9553,$,48044
HJzEzQfNPxpCbm1j8xrmIw,Value Center Market,32,3.5,42.57068,-82.87325,$$,48036
Sxqz743GNoIB_e60bGhfkQ,Classic Family Grill,46,4.0,42.5491,-82.95868,$,48026
9XSN77_LvO2ZdkLFuvVtbA,The Tavern At Tina's Country House,69,4.0,42.67199,-82.87735,$$,48042
lyEYFQFZ265m7ZJCR6afww,Sammy T's of Fraser,47,4.0,42.53625,-82.95075,$,48026
MC-xhPDlgaB3ZIuWRIw7VQ,London Fish and Chips,42,3.5,42.54922,-82.87403,$,48035
Tzup-Sf3AahO5a2FQjnOVQ,Alex's of Clinton Township,39,4.0,42.56628,-82.89266,$,48035
Nl7rhuUub5isDC6N6SrmRw,Famous Dave's Bar-B-Que,112,3.0,42.52442,-82.91421,$$,48066
de_1Xhxe0XdU_MfTeVwwEg,Cali Tacos,18,4.5,42.52693,-82.89541,,48082
Gfi6Hv6x-pizu2t78EkYnQ,Bumpers Landing,83,2.5,42.59515,-82.79135,$$,48045
3zLrLAdFu52_MUxtCu1Aqg,Leos Coney Island,107,3.0,42.53754,-82.91114,$,48066
S2zmWl-Onv_g5sPsksW8qg,Love Sushi,25,4.5,42.5398,-82.94826,,48026
_wphzJJZMULDD5Dw1i8YEg,Aurelio's Italian Grill,92,3.5,42.61384,-82.95257,$$,48038
6W5u_aj4-iyXHNw9q6M3kw,Marco's Pizza,28,4.5,42.65762,-82.84573,$,48051
F7QKlTp1_wrzjWy0nNHlNw,Lam's Pearl City Restaurant,42,4.0,42.52609,-82.90817,$$,48066
PPe52g6yPML82QYuQFmgPw,Pegasus Taverna - St Clair Shores,126,3.5,42.47717,-82.88988,$$,48080
wo5RSVA0ogGr3Ivj7T1LoQ,Bangkok City Thai Cuisine In Fraser,45,4.0,42.5534,-82.95145,$,48026
UmpGgarZ2Ia2n1iAqnaDjw,Vik's Diner,57,4.0,42.55286,-82.95974,$,48026
r1RnGcR8BwnNfbKBv73ouw,The Firehouse,41,4.0,42.65945,-82.84583,$$,48051
eNwCJaN0q4H2ecoqregsVA,Apple Annies Kitchen & Bakery,129,3.5,42.50264,-82.93232,$$,48066
g96n1Ugrb9u6wI5v2e_3xA,Von Thai,69,4.5,42.47969,-82.934,,48021
lfI1R7Nl6n7gB6n4LqEr3w,Rivercrest Family Dining,14,4.0,42.57317,-82.8723,$,48036
nCi78JODjYHOgfol_M_65g,Texas Roadhouse,104,3.5,42.67438,-82.83767,$$,48051
WtwQRp6S8qEx9TGNbPmxzQ,Hollywood Mediterranean Cuisine,23,4.5,42.52373,-82.93701,,48066
Ei23B8DzWB4Ty4f6Iuxdag,BIGGBY COFFEE,23,4.0,42.59385,-82.9011,$,48036
BsggxhfUgy_5p-osmwcZ7Q,Jersey Mike's Subs,31,4.0,42.62963,-82.91366,$,48044
hvgc3Q9mRrhXLv-ZGqNxAA,Bitto’s Little Italy,12,4.0,42.5934,-82.80979,,48045
4PU9rEnFJOiC0BAHHjE3vQ,Madison's,51,2.5,42.59731,-82.87922,$$,48043
IfIda8OrNcKr1KevIpRQdQ,Wrap & Roll,24,4.5,42.6734,-82.94049,,48042
eWwYGWTPBKNQKzN0Uc7Y4Q,Winner's Bar and Grill,19,3.5,42.55146,-82.87269,$$,48035
QN4K64mmsRfrvaa6qChxIg,Gus' Mt. Clemens Coney Island,44,3.0,42.59822,-82.8774,$,48043
uD5_uh9TvsLDJg9xdRi9YA,Pat O'Brien's Tavern,119,3.0,42.4779,-82.88961,$$,48080
HMEDVN50_E_NBSO6NLrAtA,Ravis Grille,19,4.0,42.64316,-82.85403,$,48051
Vgn0NCCCEFLFxg0VUrnjVw,Papa Romano's,13,4.5,42.59028,-82.95132,$$,48036
af-kTqO5JzEwSxU7HjMJNw,Watermark Bar & Grille,220,3.0,42.47105,-82.88382,$$,48080
wROLwIsCJ-7KtcVj_iev4g,Giuseppe's Restaurant,49,3.5,42.66132,-82.8432,$$,48051
PnxkiLaVfzP0kYclL92ldg,Greek Pantheon - Clinton Township,44,3.5,42.60376,-82.95277,$,48038
MgkN8fgriscQ8ytdqzDcqQ,Detroit's Finest ,64,3.5,42.48133,-82.8896,$,48081
sUBL8J9ip2lG9_vKfKQ4eA,Green Lantern Pizza,51,4.0,42.65633,-82.937,$$,48044
rQ1PcYVdJXSSgh9_Shf25Q,China Star Parkway Center,20,3.5,42.57255,-82.90976,$,48036
688a1J1Q3zv31KRDsxBwFw,Harbor House,99,2.5,42.54851,-82.92714,$$,48035
e3ytunqFHMKnfVooAGwRdA,Boatyard Grill,49,3.5,42.65698,-82.78574,$$,48047
lwzOiwIAR-yQJ1zZvMrKdA,Scramblers,37,3.5,42.52506,-82.90678,,48066
qdMRaccEsCzlvij8plLS3w,Del Taco,41,3.5,42.67306,-82.8337,$,48051
unUqlN-uu7oql5JgGstdlw,California Pizza Kitchen at Partridge Creek,114,3.0,42.62594,-82.94807,$$,48038
P9ihi_upcasYGn2wtfpSfQ,Donna's Family Dining,24,4.5,42.47993,-82.92787,$,48021
RlNEY6oklqsQlwMSQWqcsw,Detroit Brothers Pizza & Smoothies,11,4.5,42.59913,-82.89865,,48043
Z-0aTiRbbo2C5o-DoJ4H-g,Dimitri's Opa Restaurant,52,3.5,42.67348,-82.83493,$$,48051
tg9MtMU5-lfR0NxR2upYmg,Ban Tai Restaurant,49,4.0,42.67108,-82.93984,$$,48044
tu_njmfJt2-5kcUrUoxfCg,Andary's Grill and Deli,50,4.5,42.47032,-82.95479,$,48021
QKNsym_jam7N0mdgi4LokQ,Michael's Kitchen,42,3.0,42.55833,-82.92188,$,48035
zJ__INiyeg8PtD-UoWIs7A,The Copper Penny,63,3.5,42.47997,-82.90217,$,48080
NKQbe7hqSX4vI1OL2f265Q,Motown Fish & Chips,14,4.0,42.56578,-82.89431,,48035
fFwDNxo7JT1ipNdruaGg9Q,Freddy's Bar & Grill,56,3.0,42.59081,-82.952,$$,48038
YToERl_vqJFwbvWTOI7XFw,Detroit 75 Kitchen,220,4.5,42.31082,-83.09453,$,48209
wqlb1TsiTBU90L4zLpS6SA,Frank's On the Avenue,18,4.0,42.50557,-82.89845,$,48081
CC887v4Q-5F8Cfdwhvp53A,The Country Inn,52,3.5,42.601,-82.95326,$,48038
yJvT1i5GdAkbEcIwmyafeg,The Hub Sports Bistro,80,3.5,42.64147,-82.95519,$$,48044
rx4ovtxZmp1CO_8AdgSiig,Waves Chill and Grill,112,3.0,42.46975,-82.88849,$$,48080
QkJixDOozYzFY4xD-1IkRw,Palmers Inn Restaurant,29,3.5,42.50428,-82.89768,$,48081
SpKo5bxESV6MtMM2A7qpgw,Chili's,109,2.5,42.53624,-82.91207,$$,48066
E5y7eJpI7ZRr_M0WdUigFg,Sam's Sorrento Pizza,26,3.0,42.59871,-82.8752,$$,48043
uPcQdNBPdVhUptG6hCcZmQ,Hook & Reel Cajun Seafood & Bar,40,3.5,42.5243,-82.92014,,48066
U9rNlv8aVVjqiBh796HChg,Infinity Hall/ Sidebar,30,4.0,42.53843,-82.95134,$$,48026
2f6fgwXJDe7LJSF83DP57g,Pita Pit,29,4.5,42.67142,-82.94005,$,48044
bMNVmFZuqMkYvoW6_8iHtg,China 1,29,3.0,42.59878,-82.89788,$$,48043
kxuoQj0RZW903CXwZvXMvw,Jimmy's Coney Grill,15,4.0,42.51557,-82.89834,,48082
OfmN71tH8zAkKT9aYUS9mw,Bangkok Cuisine,80,3.5,42.48132,-82.94855,$$,48066
L3WsAMawqdLgDz9UkqRu-A,Jersey Mike's Subs,14,4.0,42.53345,-82.91229,,48066
WXISdeVUu43fwrCqJ1r3-g,Spice Bowl Indian Grill and Eatery,18,4.5,42.47196,-82.90501,,48080
wmcTWfox3udFUCn3e8lrQQ,Tropical Smoothie Cafe,32,3.5,42.62919,-82.9387,$,48044
YNp13wOrYnfHbr6uiJItIw,Bagger Dave's,53,3.5,42.67179,-82.83457,$$,48051
b8HSB63Me-kXRs95PsP03A,Olga's Kitchen,147,2.5,42.61428,-82.95373,$$,48038
NXR-g2hXbMPwKI6no5SXeg,Buscemi's,14,3.5,42.61262,-82.95225,$,48038
LGBgeiK22TSafhlnZAmp1w,Papa Johns Pizza,22,2.5,42.57122,-82.89165,$,48036
XSFylT2TnAuHL77gmrUv4Q,National Coney Island - Roseville,51,3.0,42.50839,-82.95904,$,48066
HMg2DvHZ-uFNEkbt4YeARQ,St. Isaac Jogues Fish Fry,8,4.0,42.48315,-82.90315,$,48081
npTws2ren1fHvdx96tKFBw,Jimmy John's,25,2.5,42.59398,-82.90088,$,48036
5bE5lM3Op5z5phspsOEqjw,Mozzarella's,4,5.0,42.50774,-82.93465,,48066
B4M4z94ULBEqb18t-GhPNw,Kapones Sports Tavern,44,3.0,42.474,-82.90451,$$,48080
ODu0zMFaW4iNRsXhjSpIDA,National Coney Island,65,2.5,42.49512,-82.9389,$,48066
eO53MjP-TftXEDL_ofvd_Q,China King,43,2.5,42.52407,-82.94451,$,48066
57XlbCJI2-vgmeeCp2xb8A,Rose's Family Dining,17,3.0,42.52652,-82.89615,$,48082
YHXC_vWyIHxjpUT9Gro53A,Big Boy Restaurants,36,2.5,42.67397,-82.81456,$$,48047
WsvBHeTCUYx9LBJTNHc0Lg,Little Thai Express,5,3.5,42.56585,-82.89404,$,48035
f6ZVCDZAEYYE4O01jrXNVg,Rocky's Ristorante,25,3.5,42.67027,-82.93947,,48044
seNrEbpbkADpraZ_p9eylQ,Olive Garden Italian Restaurant,96,2.5,42.47842,-82.94967,$$,48021
5QNTfX52Jyu9aDJRwDR7HA,Arby's,20,3.0,42.62975,-82.91455,$,48044
fqidCR2Q5eoKpfTJCOzSEg,Pita Plus,7,4.0,42.52643,-82.94465,,48026
tVse36nZmKBoW8oDyYxpfA,Rusty Nail,9,3.0,42.56031,-82.91971,$,48035
LWIoUfgPsjzG2-95l9YrIA,Jimmy John's,26,3.0,42.62919,-82.93854,$,48044
LF12XOwnEeB8rJE2T1y0PQ,Passport Pizza,20,2.5,42.5582,-82.92018,$$,48035
xA1hNajySSoRsiH4uuGrWQ,Sports Channel,18,3.0,42.47959,-82.88975,$$,48081
MYitN20jWVsgZAFFErVkrQ,Waldenburg Bar,18,3.5,42.65689,-82.93671,$,48044
2AzfcZmtKui2T5JDehs9xQ,Chuck E. Cheese,11,3.0,42.53079,-82.91207,$$,48066
vBGhSOPINVGUBhSJYFDGYg,Savvy Sliders,8,4.0,42.62964,-82.91994,,48044
O7VqZ0nLMEUyrkBC8NEnPg,Buscemi's the Original,16,3.0,42.62838,-82.91401,$,48038
elQ3rLm9RwG18g-V63PYIA,Mai's Spicy Kitchen,5,4.0,42.65008,-82.85132,,48051
cZYoCTTdSOEKjkOedvV7Ag,Court House Cafe,2,4.5,42.59794,-82.8772,$,48043
vb6y2Pjid7hg2ShNfqSwMw,Sero's Restaurant,33,2.0,42.65561,-82.84702,$$,48051
4OyciuiJeWv2qAO23HpoBg,Dairy Queen Orange Julius,9,3.5,42.60839,-82.95355,$,48038
NTVlNWvqyo5pqYZaPGe6cA,Chicken Shack,29,2.5,42.58492,-82.95194,$,48038
hV20rLdOsNsaUzQBUeIgxQ,The Original Buscemi's,9,3.5,42.67382,-82.81517,$,48047
fGj2fwdxSuIB3hYPaUq1WQ,Michigan & Trumbull,118,4.5,42.33208,-83.06645,$$,48216
wUO4TOHCf4k_hSrvDKkQjg,Gus's World Famous Fried Chicken,275,4.0,42.34795,-83.06769,$,48201
y5f0TpePJ-vOxEjzNvQuwA,The Peterboro,378,3.5,42.34418,-83.06056,$$,48201
hiycv628sqdJGgJbIoiy9g,Go! Sy Thai,344,3.5,42.35152,-83.06378,$,48201
O90Q7WzpAhfuC-QYkCU0Fg,Seva Detroit,503,3.5,42.35485,-83.06137,$$,48201
WAagEMgxpCCO0CfWTeLtzQ,Condado Tacos - Midtown,117,4.0,42.34755,-83.06537,$$,48201
ODy5o9SXrnF3svV-6h-P7Q,Pho Lucky - Detroit,249,4.0,42.34443,-83.05608,$$,48201
2xDUtzO7aSJHdj9-Kn2O-w,Bronx Bar - Detroit,251,4.0,42.35225,-83.06686,$,48201
2ryA0axzi8P5zbQAePZ0ow,The Whitney,554,3.5,42.35275,-83.06215,$$$$,48201
aVOoohl4rV4yrOebhiZiWQ,Smith & Co,91,4.0,42.34745,-83.06562,$$,48201
8CSAifNfdBhaOKwpyV49bA,Momo Cha,53,4.5,42.34422,-83.06156,,48201
ETRlSpmO2fpj2m6-g5l4Rg,-320° Coffee & Creamery,56,4.5,42.34423,-83.06157,$$,48201
iwa6xSsNeY1NahhJjCy3xw,Slows To Go,258,3.5,42.34955,-83.06332,$$,48201
-s_eiUkP-wlRqGy68KhSXw,La Palma,189,4.0,42.35363,-83.05959,$,48201
ecM8yvDEvlJLKnxs878OUA,Polish Village Cafe,547,4.0,42.39841,-83.0567,$$,48212
MB2cxe9qe3SGvUv0ONwrXg,Boostan Cafe,223,5.0,42.39613,-83.04886,$,48212
fmcHbCeBsXEEdY4btGBcPg,Yum Village,144,4.5,42.36938,-83.07228,$$,48202
M_e9bzbH7yzwcVL_6an9Lw,Oak & Reel,95,4.5,42.37222,-83.0668,,48202
JU83fjqfc-8OF_60mvgVvA,Babo Detroit,153,4.5,42.36056,-83.06647,$$,48202
pvS6CcEHWFEvNE_PfLuFXA,Polonia Restaurant,249,4.0,42.39784,-83.05771,$$,48212
FZnsqDn-j-oH2rsvocmzFg,Amar Pizza,120,4.5,42.40607,-83.06429,$,48212
9KCNDuSXIPJdW4ccqK29ow,Cuisine,135,3.5,42.37021,-83.07854,$$$,48202
YnNxeN1q8VfIdH2alMRJlA,Srodek's Campau Quality Sausage,60,4.5,42.39579,-83.05749,$$,48212
aoSK__6Vz8ow05tvBtRNQg,Balkan House,109,4.5,42.40014,-83.05814,$$,48212
Zv2OfTNt5lMcj9FfgLj2rA,Ochre Bakery,63,4.0,42.34874,-83.08843,$$,48208
oiAg2xABaFCKiZTyBMKIvg,Z's Villa,117,4.0,42.3665,-83.06964,$$,48202
VN4CF5xc7hI8IX4pi6evmQ,Tony V's Tavern,67,4.0,42.36232,-83.06983,$$,48202
yYnTE3a0KqE6lvZKFMlWJQ,Kresge Court at Detroit Institute of Arts,51,4.5,42.35908,-83.06555,$$,48202
-niJiIyxntNfZcLpyQ7cXA,Wasabi Korean and Japanese Cuisine,317,3.0,42.36054,-83.06595,$$,48202
7q9U7aJMrnghgH1FTSoo0A,The Potato Place,111,4.0,42.35605,-83.06604,$,48201
S38PGOYazDq82Su_GyoNHg,Common Pub,65,4.0,42.36005,-83.06813,$$,48202
_3SXEvZRPtGpu1k_r7gM-Q,Zo's Good Burger,64,4.0,42.36712,-83.08036,$,48202
d-5lyKTcTy10JSrBnR3q0A,Freya,27,4.5,42.37217,-83.06698,,48202
y6fqk-OHUuPw4QjHu-bDow,Traffic Jam & Snug,511,3.0,42.35096,-83.06609,$$,48201
JvolfqwcN7PC4CVQGssGCg,Poke Poke - Sushi Unrolled,63,4.0,42.35341,-83.06245,$$,48201
zVuAAy0rIz3LvF_eRb1JuA,Yemen Cafe,129,4.0,42.39018,-83.05329,$$,48212
5ZM8W-9-iOnoaJ4L1tTr2Q,The Turkey Grill,113,3.0,42.37598,-83.0769,$$,48202
w7doyg39N4SQjQxVfEQ1xw,Joe Louis Southern Kitchen,46,3.5,42.36969,-83.07342,$$,48202
lpRCefLR1QwA-hzxBWvNiA,Savant,84,4.0,42.35411,-83.06351,,48202
QjiScrrpktNME-EXhK7Gig,Supino Pizzeria,18,4.0,42.3693,-83.07286,,48202
bCx2txcAqiZpUW1U3mNCQw,New China One,34,3.5,42.37151,-83.07391,$,48202
EzgWrsHMx-BxR0l5KdATLQ,Sheeba Restaurant,32,4.0,42.3903,-83.05332,$,48212
VerpVHJjf9W87vPmC0OaLQ,Starter's Bar and Grill,129,3.0,42.35391,-83.06286,$$,48201
9xlGxd3zL3Rpq5fhIvHqLQ,Shield's Restaurant Bar Pizzeria,40,3.5,42.3576,-83.06505,,48202
QQmE5sfaHxP5Az0SdGOaNA,Mocad Café,15,4.5,42.35369,-83.06148,$$,48201
9fha5VcmS3qABRPEfBBqXA,Impasto - Italian Inspired Wraps,16,5.0,42.33693,-83.30484,$,48127
Jola2XUxkz9s5gwVfsKBiQ,China House,39,3.5,42.35911,-83.05876,$,48201
70zEOA3dsFEwHs5IIFWiaQ,La Dolce Vita,395,3.5,42.42027,-83.10643,$$,48203
ZbqZBz6OcGqtELFYqYlJYw,The Dakota Inn Rathskeller,135,4.0,42.41994,-83.10164,$$,48203
BKSUrliOqp-5G2nxikC_Yw,The Narrow Way Cafe & Shop,81,5.0,42.43404,-83.1418,$,48221
77xiexBhSzXLPitxrS6mtg,Schramm's Mead,56,4.5,42.45421,-83.14237,$$,48220
1DDZ6Uf6YuJ7NEtzDd7ZgQ,Detroit Soul,59,4.0,42.4468,-83.0739,$$,48234
bs23dnccSco17JhCuoAlaA,Aladdin Sweets & Cafe,130,3.5,42.4066,-83.05575,$,48212
4E1NX9wbspg2-FQ6O8RbIQ,Oloman Cafe,28,4.5,42.39862,-83.0593,$,48212
W_h64ZRplw7mE1j41ETBRA,Dos Locos Tacos,60,4.0,42.3995,-83.05979,$,48212
0hmOVRxLEWUqUbi2vdCcDw,Detroit Shawarma,28,4.0,42.43611,-83.11731,$,48203
D_e79Qo_gm4TRJk95ob-tg,Sam's Ferndale Grill,91,3.5,42.4498,-83.1265,$,48220
VOoMSTaQFo3T4zrMJ1D5ZQ,Halal Desi Pizza & Gyro's,58,4.0,42.39741,-83.0655,$,48212
VbI5R2p9AI9qZPAoA_QmYw,Maine Street Restaurant,71,4.0,42.40306,-83.06169,$,48212
bD9qIdZWvbyZSKxYpBKcIA,Nunn's Barbeque,50,3.5,42.43432,-83.07423,$$,48234
EcwW8y3CPpOz8aYdKERZ9Q,Amicci's Pizza,74,3.5,42.39766,-83.05853,$,48212
flpMXV_1i4xE5ZCWYz3VOg,Bucharest Grill,134,3.0,42.43659,-83.14131,$,48221
rGqxAFJmDJXg9MdVUdve8w,Taylor Made Phat Burgers,35,4.0,42.43308,-83.05453,$,48234
67OAiibU5_LRfzrGvW2sTw,Reshmi Sweets & Cafe,49,3.5,42.4084,-83.05622,$,48212
8ivTIA96YGx05N0g0gvb5A,Kabob House & Mouchak Sweets,68,3.5,42.40323,-83.05349,$,48212
hf_lxHxDmueVmh4uwI8g_A,Bishr Poultry & Food Center,17,4.5,42.40948,-83.05693,$,48212
oCuSb7NGOYv_AdSyQ-1dxQ,Pequeño Cantina,11,4.5,42.43395,-83.14181,,48221
O72AS1bvoZo0ycfeHhwpJw,Kwong Tung Inn,45,3.5,42.4469,-83.07213,$,48234
XT3YgQ0rgtOdohJYCaWwOw,Trap Vegan,22,4.0,42.44306,-83.14142,,48221
3Q3wRQNQPNNIpgxLxyloFA,Cakes and Shakes,7,4.5,42.40504,-83.09647,,48203
s6NLs1dCb8ohGvWfmqyppQ,One-Eyed Betty's Beer Bar & Kitchen,1176,4.0,42.45998,-83.13581,$$,48220
EWQiie9GDff5vdUDSDBdVw,Imperial,1330,4.0,42.46105,-83.13427,$$,48220
OuDXvL5Nc3woI68UwMJzLw,Public House,719,4.0,42.46033,-83.13705,$$,48220
0_-XMCBdONjEjvoMTZHPPw,Pop's For Italian,692,4.0,42.4608,-83.13789,$$,48220
fUjJRb7McOOM-lRiR3M9Jg,Anita's Kitchen,607,4.0,42.45959,-83.1343,$$,48220
39GBMqqrw0Ax6FXe2Fws_A,The Red Hook,184,4.5,42.46083,-83.13663,$,48220
4z2IsdJofEmAnhnhuK-caA,Bangkok Cafe,275,4.0,42.46037,-83.1383,$,48220
4nCInYsjx9PbFzsKoAivNA,Bobcat Bonnie's Ferndale,301,4.0,42.4607,-83.13727,$$,48220
i-K8bczg97394moKngRgEQ,Detroit Fleat,243,4.0,42.46085,-83.11274,$$,48220
kqlg-9zqgsXMQZgsKMGVqA,"The Corner Grill, Bar  Game Room",117,4.0,42.46078,-83.1389,$$,48220
pKnjKkLGvr7c0ebevDGR-w,COMO's Restaurant,280,3.5,42.46079,-83.13423,$$,48220
gV-9dr8dRYKihUNkB3ZPqA,Balkan House Ferndale,69,4.5,42.4608,-83.13846,$$,48220
E20aeHzgNvwVRQYxZShlTA,Woodward Avenue Brewers,301,3.0,42.45968,-83.1333,$$,48220
IHJJRx8QWCS-Q7uz25ySvQ,Got Pho,58,4.5,42.46083,-83.1359,$$,48220
ABdTLz0ypsgucJL5KgYYNw,Hambo Coney Island,87,4.0,42.46165,-83.13457,$,48220
6B3PA0C2URb5T4-DF3jk0g,May's Bangkok Express,110,4.0,42.46077,-83.13784,$,48220
yg5Ff-yKvwNLlIcovbYx7g,Nick's Pizza,92,4.0,42.46087,-83.1241,$$,48220
HSHEKfBpXHf9dEjoMAbLxw,Wing's Gardens,116,4.0,42.4604,-83.15604,$,48237
ZuzlfqyalXZNvRv3Mlm0Ew,J's Penalty Box,66,4.0,42.46003,-83.13373,$$,48220
qVb-pQOXbfbG9g6NUqs_pA,Star of India,143,3.0,42.46072,-83.13584,$$,48220
kCdNBdo1bUK50NFK55qi_w,Applebee's Grill + Bar,95,2.5,42.44618,-83.12306,$$,48203
XacgNEm8TqWsK-RILFdCfw,Traverse City Whiskey Co. Outpost,31,4.0,42.46091,-83.13421,$$,48220
jLR9iIsNmwK85mqgKQ7j7Q,Lefty's Cheesesteak,48,3.0,42.44606,-83.12088,,48203
BXSEysmWPwVHK2bwKNyzeA,Noni's Sherwood Grille,32,3.0,42.43721,-83.14133,$,48221
4Jd2u9Q1-ijXUmu4m1LG6g,Ernie's Market,475,5.0,42.45592,-83.15737,$,48237
Q2EBL0G3e2qXKi9R_ufH7g,Chef Greg's Soul -N- The Wall,45,4.0,42.42416,-83.16084,$,48221
R9-RJksyy7Tzb1AxcKPzBw,China Wok,14,4.0,42.42869,-83.14087,$,48221
bORSBYzq4l2nA8ux2fLmxg,Uptown Barbecue,73,2.5,42.40653,-83.13993,$$,48238
-khFFZS-e6cN9NNgjnxc5g,Motor City Brewing Works,9,4.5,42.43436,-83.14122,,48221
ZtVRNsdHZ26Cz0-jfXMqXw,Good Times On The Ave,42,3.0,42.4356,-83.14117,,48221
JE_Djpnqhc2XgliB92CNFQ,Asian Corned Beef,43,3.5,42.388,-83.15898,$,48238
fxftSBVIj2DijBVDu4AwRg,Legend's Coney Island West,11,4.0,42.39305,-83.12111,$,48238
vkeCKlZmVcjPmamfJnSWsA,State Fair Coney Island Restaurant,8,4.5,42.44758,-83.10312,,48030
TpPjh13cRL_h3Rh8xPVKjg,State Fair Supermarket,13,4.0,42.45218,-83.12223,$,48220
kjRYjSDDuqZbPCpb85lkIw,Papa's Drive thru,6,4.5,42.4467,-83.13955,,48220
hv-UCrOw9cKz5Bqt66OWmQ,Gregg's Pizza & Bar-B-Que,32,2.5,42.41803,-83.14049,$$,48221
jTREAc4Cis0m2-zByeiefQ,Woodward Market,1,5.0,42.43597,-83.11712,,48203
LfurDi0oX869xItYAPWc2w,Finger Licken,4,5.0,42.42993,-83.14166,,48221
ZDemWGG9VKDyOcehpSSdyQ,Blue Seas Fish Market,9,3.5,42.44652,-83.14294,$$$$,48220
YZaT35IFzTMHfCEnD_LFoA,Pappa’s Drive Thru,4,4.5,42.4467,-83.13955,,48220
EnhflOGuF4mgC1dxrRfkgA,Tres Leches n Snacks Tacos,1,5.0,42.41602,-83.10845,,48203
fvd8Ke88teGRS9irOEaGmw,Parkside Coney Island,14,2.5,42.41742,-83.11591,$,48203
uPkY-1uM8_dMm0uqIGD-KQ,T-Mo's BBQ Pit,11,4.5,42.4169,-83.14516,,48221
n1c2s5-acSmeK3vn2dCc5Q,Fork in Nigeria Food Truck,3,4.5,42.43334,-83.1413,,43232
xtl7KGp1Z4Rvo2Rxgs7vLw,Psychedelic Healing Shack and Vegetarian Cafe,1,5.0,42.42906,-83.11249,,48203
wT7mZIA9k1GdbKIqVwmQbQ,Tigris Restaurant,4,3.0,42.43245,-83.10953,$,48203
FyLaLYY8LWXW0EFaFOkRPQ,Captain Jay's Fish & Chicken,12,2.0,42.41825,-83.14123,$,48221
eYhyHmUe_yr0tpbHof8UiA,Pappa’s Drive Thru,1,5.0,42.44667,-83.13967,,48220
YYoxCNhoYryKgwAkJtII2w,Salem Market,1,5.0,42.45326,-83.10312,,48030
qtOvg7CJ7_JB-urFBA4OWQ,Papa's Pizza & BBQ,11,2.0,42.43178,-83.14622,$$,48221
XD9VkGKA_RXfR0NcodB4uA,Quick Foods,3,3.0,42.44714,-83.11835,$,48220
wZGQjy3bBvOxIvOZ0cybfg,Caribbean Citchen,85,3.5,42.41702,-83.16602,$$,48221
H_YKuNubssHEp98l10DJtw,Motor City Soul Food,111,3.0,42.43141,-83.17083,$$,48235
6rzvMwgHbonIgyIH8HbntQ,BBQ Central,35,3.0,42.43099,-83.17125,,48235
xUggLy8-ex4j8PMr6kUL4w,8 Mile Grill Coney Island,15,3.0,42.44554,-83.15125,,48221
i-APo19ZYZ1IEYTfvhQHVA,Capital One Coney Island,15,3.0,42.44626,-83.16106,$$$$,48220
1B_OqwqdqrQULAhGvGej-w,Deli Plaza,1,5.0,42.42612,-83.16098,,48221
6KGOyPbuuD43yrI24uvTDg,Grandfather's Place,1,5.0,42.41724,-83.15063,,48221
9sBKLm8vXCqJP0Z1YddcIA,Mark's A Eagle's Coney Island No 4,8,3.5,42.40928,-83.17006,$,48227
bEcx2ZZf-SA6uGgqd7oaVg,Chik-N-Wings,4,3.5,42.44533,-83.16348,,48221
WmNfJzqnDX3EHpRQHBb_4g,Captain Jay's Fish & Chicken,4,3.5,42.41555,-83.17051,,48235
oIu-i9xxVaifdA9j7CuWYA,Livernois Fresh Fish And Seafood,3,3.5,42.42522,-83.14094,,48221
bTzNnuATPBKlOp7S8jNafw,Connie & Barbara's Soul Food Restaurant,41,3.5,42.41637,-83.17429,$,48235
bxOvJ6oZj1Mu-dxktDrH4A,Sloppy Chops,45,3.0,42.41678,-83.1761,,48235
Es7x1hZMnVvEUf7_BzQpYg,L Georges Coney Island,20,3.5,42.4163,-83.18053,$,48235
cI37hvZQVn-x6j04WTKkjA,The Charlevoix,89,4.5,42.38493,-82.94544,$$,48215
y29cTUUel73awDZPE5iTOg,Alma Kitchen,39,5.0,42.38814,-82.94133,,48230
F7F_5cbT1pKWrPzfxvcsCg,Howlers & Growlers,94,4.0,42.38589,-82.94197,$$,48230
Jzs0rmsXht2Q8L8qOIpsEg,Mama Rosa's Pizzeria,97,4.0,42.38766,-82.94402,$$,48230
wplK0CKmjjZneXrz-dyD3w,Marge's Bar,45,4.0,42.38795,-82.94233,$,48230
zPkghJTy4cb1DPCWQ5HMHw,Vegginini's Paradise Cafe,75,3.5,42.38837,-82.94231,$$,48224
fipY2GixLKnQK0knU-UinQ,Sierra Station,77,3.5,42.38745,-82.94508,$$,48230
RMQW0S-WvEX92L55h2UUMA,Park Grill,122,3.0,42.38097,-82.94096,$$,48230
qOQLFWn_VE21ogol12DoGA,Cabbage Patch Saloon,20,4.5,42.38767,-82.94468,$$$$,48230
wtWOMugFgktzB1s8dzLxow,Cabbage Patch Cafe and Catering,40,4.0,42.38107,-82.9409,$,48230
0SSAdXRsAStqNq9bC76fyA,Cellar 313,32,4.0,42.38116,-82.9408,,48230
DSrKyiiOoHdDPGAFuaVVOQ,Antonio's in the Park,53,3.5,42.38156,-82.94087,$$,48230
9ZQ2CEOukobuVCbZMPVmQg,Louie's Ham & Corned Beef Shop,22,4.0,42.41407,-82.94045,$$,48224
w248IBqdEWJHCHsQ0n056Q,PoP Culture Vegan Cafe,7,5.0,42.38853,-82.9421,,48224
hhmTiNJH_Er-nl2q_86aKw,Krazy Pizza,14,3.5,42.38609,-82.95397,,48215
LfP6juwAQ243Xhe5ROQNbA,Olympia Coney Island,3,4.0,42.4043,-82.96479,$,48213
8okd__QuusECQ21cvH52sA,Excalibur Park,24,3.0,42.38524,-82.94464,$,48230
ZXKMN_AvnojqU0Ls08uWvA,Captain Jay's Fish & Chicken,9,2.5,42.4051,-82.96447,,48213
q6UaYYgDu8Sz5aJ4mJ3BTw,Universal Coney Island,7,2.5,42.39615,-82.95762,$,48215
P1dUWQpoUIHANMA_Xuy0EQ,Detroit Wing Spot,15,2.0,42.40226,-82.97354,,48213
fOo42xTa7ySrQeH34LGpvQ,Universal Coney Island,9,2.5,42.40591,-82.96115,$,48224
70rqJwX7Koi58Sx7pKbZ6w,New Harper Seafood,4,3.0,42.40168,-82.97549,,48213
lsy5e4WoppbcEoGRfKhs7Q,Mr Sea's Fresh Fish & Seafood,5,3.0,42.39045,-82.97176,$,48215
ze_PjngVwc82nodV0KPCBw,Maison's Restaurants,8,3.0,42.38505,-82.96127,$,48215
pe3u348RowtQdtrAbZK19Q,Number One Chinese Restaurant,5,3.5,42.38849,-82.97884,$,48214
QTq14rLfan6qYAPyh1Vh8g,Toney Island,3,1.5,42.39242,-82.96677,,48215
OnFPQNaesIZEzZ5YZ1vNTw,Checkers,6,3.0,42.41281,-82.94235,,48224
44m8t7DSkvP56x0C09IuzA,Al's Fresh Fish & Chicken,2,2.5,42.38983,-82.97398,,48215
pKZQBsL7uKj6GranEggqFg,Chicken Shack,6,2.5,42.38665,-82.94987,,48215
6XP4s0OA7y1bwUlPv6ovxA,Harper Deli,1,4.0,42.40625,-82.96,,48224
611QwVU1uPKRQBDXNZkEYQ,Manhatten Fish & Chicken,1,4.0,42.38409,-82.96752,,48215
-8yB6eN4BqPfVBbSLQAYNw,Chicken Talk,2,1.5,42.41628,-82.99022,,48205
0ke8vkU9QrN6DC4EdJHOXw,The Jagged Fork,570,4.5,42.4106,-82.91311,$$,48236
qIOqjnVR8dwslhxOr0SgOw,Garrido's Bistro,335,4.5,42.42575,-82.90999,$$,48236
es9pydkjonOwApjvK3IgKQ,Cadieux Cafe,146,4.0,42.40155,-82.92639,$$,48224
TIWxKnk5HNNsxoxXypFAsg,Churchills Bar And Bistro,70,4.5,42.42038,-82.91095,$$,48236
MzNbpMpjUN6S1xDKMpktcw,Blufin Sushi,298,3.5,42.41196,-82.9123,$$,48236
1gl6nLjD1q_qQYk8dXe11Q,The Detroit Pepper Company,24,5.0,42.40638,-82.92801,,48224
I6qw8Of17Qnn49KHnBlxPg,Dish,49,4.5,42.41021,-82.91369,$$,48236
7L9OZICwNWVMNjpLyILqHw,Village Market,57,4.0,42.40847,-82.9139,$$,48236
Z6abD-iuSeAcsRiJXHtkSQ,Lunch Box Deli,126,4.0,42.39446,-82.92258,$,48230
mnRXy9oWc5NXvwuC7aD8OQ,Burrito Mundo,163,4.0,42.42334,-82.91041,$,48236
c1skLJoAFtoZ7NKnil9rKw,SideStreet Diner,151,4.0,42.39,-82.91511,$$,48230
5t_GXn2M3voh0LMlctJCJA,Irish Coffee Bar & Grill,65,4.0,42.41306,-82.9116,$$,48236
8JJ9ihWsYuCNChsIMMPrAg,Noble Pig,74,4.0,42.41822,-82.90995,$$,48236
ec6pF-D_7qtn07hbgAPECA,Old Pony Martini Pub,111,4.0,42.38921,-82.91676,$$,48230
6CFArUwrKj7mKd-i9L-rVw,Dirty Dog Jazz Cafe,109,4.0,42.39538,-82.90326,$$$,48236
HsJBLE2Aml72c_mC_-SvPg,Bogart'z,72,3.5,42.39894,-82.91953,$$,48224
C-jgJ5DRSMO2UWWylSezrg,Noorjahan Grill,31,4.5,42.39416,-82.92345,,48230
E9l4pAmQ7cbl4ZBOUGMuoA,Cleopatra Mediterranean Grill,79,3.5,42.41649,-82.91108,$$,48236
onviYxo6U7OHtY2fRP8wAA,Five Pointes Cafe,24,4.5,42.41743,-82.9103,$,48236
WowlzZT8ei197XOuzHJw8w,TN Thai Bistro,193,3.5,42.39015,-82.91528,$$,48230
MJ0NTxK6N5XnISSypJ0thA,Luxe Bar & Grill,146,4.0,42.39581,-82.90268,$$,48236
SfrXsJx7ditGKJfiNTt6Qw,Original Pancake House,220,4.0,42.43703,-82.90854,$$,48236
dG7pgR6I6A_HskQojrUOmQ,Licavoli's Market,117,4.5,42.44738,-82.90649,$,48236
XOvPJxxdtaXg-YOOS-2NYA,Rabauts Cafe,16,4.5,42.41172,-82.91402,$,48236
yFSvq-Hj0BNDdW9PkUFvkQ,Norma G Caribbean cuisine,148,4.0,42.37411,-82.94127,$$,48215
nDB0jMujCkdoGSqnGEEt9Q,The Sprout House Natural Foods Market,58,5.0,42.38191,-82.93947,$,48230
ujhXNfnp6M4L6lRmybhiBg,Salvatore Scallopini,83,4.0,42.42646,-82.90989,$$,48236
S4425OWYkTTqcZ8PceVcmg,Capers,149,4.0,42.44052,-82.97356,$$,48205
3YaM1Oc7Ps1HR2w27os0vg,Flamz Pizzeria,18,4.5,42.4032,-82.9384,,48224
goP-GlikJtOkw2nCBP2aig,Royal Eagle Restaurant,57,4.5,42.44142,-82.94417,$$,48225
ozSnCFz_IHNL_kbh_yDuug,Jumps,87,4.0,42.39479,-82.90405,$$,48236
D_q90_VQSf_K-P3EwW6hDQ,Lyla's,46,4.5,42.43374,-82.90859,$,48236
YcA7_wMfFVgbngjbFy3lYQ,La Cina,57,3.5,42.39666,-82.92104,$,48224
0Z5bdnAbiXYxRx8jdvb9kA,Red Crown,266,3.5,42.38243,-82.93861,$$,48230
UkfQSu-bTT_q99nR19uDig,Mack Avenue Grille,85,3.5,42.42976,-82.90952,$$,48236
Z4aKrHqDLYecrTq8YJSh0w,Ferlito's Restaurant,115,4.0,42.44473,-82.90705,$$,48236
P9v9Lj_wd_JzhyhBAhIluA,Cafe Nini,38,4.0,42.39511,-82.90268,$$$,48230
HgIlusVTW40O6TK5KgU9Sw,City Kitchen,84,3.5,42.38936,-82.91817,$$,48230
1mBcZvGt5mZcXl9VVMRORQ,Bucci Ristorante,110,4.0,42.4358,-82.90862,$$,48236
5elj2P2Wg-DW77yAAHXOWQ,NoorJahan Indian Cusine,90,4.0,42.44278,-82.90752,$$,48236
XYGjF1eDmFQze042Dh2yYg,Telly's Place,81,4.0,42.44548,-82.90695,$$,48236
DGmpRv6ZexzGUwUPGXcUoA,The Cracked Egg of Grosse Pointe,71,4.0,42.3884,-82.93986,,48230
-D_43sw_fn2r_m4lbzB75A,Wing Snob,18,3.5,42.40624,-82.92977,,48224
WupCwSUy1u4X9ngF4z851w,Mimi's Bistro,66,4.0,42.37659,-82.93467,$$,48230
K9R1o1gpIndePCpl3QxaQA,Al Haramain International Foods,14,4.5,42.39178,-83.0561,,48212
78JCvxAcHtFc3EiFMa_vJQ,Ivanhoe Cafe - Polish Yacht Club,35,4.5,42.36859,-83.03903,$$,48211
VZAeI1RL7CCbuCQikmtZEA,Raven Lounge & Restaurant,29,4.5,42.36691,-83.04186,$$,48211
TfLHbgnlrykpWDN7C885Gw,Loui's Pizza,505,4.5,42.4639,-83.08432,$$,48030
vFXrZytaj9zaj1NIXRI74Q,Haney's Family Restaurant and Catering,78,4.5,42.47318,-83.02767,$$,48015
Xt8Q9Sf9D6QGUsGsoZMFHw,Marcus Hamburgers,22,4.5,42.41945,-83.03727,$,48212
4He1z93opbWWWnIni45gxg,Warren Kabob,59,4.0,42.45903,-83.02627,$,48089
CS2DNATdAhWPTI4OPlruBQ,Siam Cuisine,29,4.0,42.46302,-83.03082,$,48091
cD614Z8ZjQ68-y-E8naVtA,Southside Grill,26,4.5,42.46249,-83.07452,$,48091
bV8M-9pLwyDJvtPmLJrnjA,Brayz Hamburgers,72,3.5,42.46158,-83.0843,$,48030
3f8_soJYK6o420mY700v8g,Louie's Ham & Corn Beef Shop,38,4.0,42.46314,-83.00821,$$,48089
RMBaV_efjmQJ4u41IvaHiw,Lou's Coney Time,10,4.0,42.43382,-83.04292,$,48234
Syh1N9P3a4Y0dhMgTmiQyg,Motor City Sports Bar & Grill,20,3.5,42.45223,-83.04489,$$,48091
veN1m3_TBXmRnNuYYrDAlg,Bonoful Sweets & Cafe,26,3.5,42.4075,-83.05625,$,48212
MvlUsx4wyiHyGX5mycp_3A,Country Boy Restaurant,78,3.5,42.46183,-83.09704,$,48030
iuilLKW48efHjTs0jbwpkA,Sunrise Coney Island,24,4.0,42.46282,-83.02712,$,48089
MOIgpB1JIQKNqtD5YOSt6A,Classic Coney Grill,33,4.0,42.46953,-83.08445,$,48030
Mtg_-e9MnOD6GEk5jNyKnQ,Eddie's Pizza,14,4.5,42.46497,-83.06477,$,48091
KK7VgoKlxd4oocoWpGBMSA,Stosh's Pizza,22,4.0,42.47255,-83.02671,$,48015
FJNSHS_IVhPsesHvQdmnHQ,Nicky D's Coney Island,31,2.5,42.44831,-83.04465,$,48091
gtp5fo_i6pFBXOZ3W7Rh6w,Louie's Ham And Corned Beef,121,4.0,42.35318,-83.04241,$,48207
mh-loeIfNqPWE9pgLAXqoA,Campus Diner,28,3.0,42.36051,-83.06892,$,48202
T7ZPv-Z6YBcAWz0IfNa4Dg,Summer Palace,68,3.5,42.38224,-82.93904,$$,48230
ytyqOjCkhFkzJlKn5GantA,The Bricks Pizzeria,61,3.5,42.38191,-82.93985,,48230
tSol6Cjo0jPp_T2VDnY1qA,Yellow Light Coffee & Donuts,45,4.0,42.37358,-82.94344,,48215
aiBjddpwyWuf1QDCyBEX1A,Stache International,152,4.0,42.34488,-83.03881,$$,48207
hSFWPlmHvawBuLAQc0Aqhg,Sala Thai,221,3.5,42.35055,-83.04295,$$,48207
ugEYip5rjBSxlwfpjmKzvg,Milano Bakery,108,4.0,42.35251,-83.04341,$,48207
0kfdp9bKX4eB6UwzJcEpvg,Beyond Juicery + Eatery,94,4.0,42.34598,-83.04056,$$,48207
tIHUAoxlyX-L3JddTNwKvw,Vivio's Food & Spirits,208,3.5,42.34607,-83.03867,$$,48207
6yyo6OtUpDir_Z9PxsmRyg,Cutter's Bar & Grill,94,4.0,42.34836,-83.03763,$$,48207
P7RxKoVn1xGwQuFzukGGpw,Zeff's Coney Island in Eastern Market,102,4.0,42.34553,-83.04008,$,48207
rc9pqNHiV_PFZrv8Qn0xnQ,Trinosophes,76,4.5,42.34431,-83.03762,$,48207
biGk_BuSKSHO2isLNJFj6A,Amore da Roma,103,3.5,42.35108,-83.04182,$$,48207
2-IrpRtjy29DjK69gCfC6A,Belle Isle Pizza,77,4.5,42.35106,-82.99576,$$,48214
_YhGeOoTH-IcauFGGXEYQg,Mumma Maria's House,45,4.5,42.35894,-82.9979,,48214
V4by95-R4Lx9Kgz4mjRrLQ,Bucharest Grill,210,3.5,42.33859,-83.02126,$,48207
FJkrTufLT0Q3dAvohruqYg,Le Petit Dejeuner,249,3.5,42.34424,-83.00775,$$,48207
2-Skd1157bodoslgf-61Vw,The Rattlesnake Club,190,3.5,42.33594,-83.0169,$$$,48207
AejD88NtGNyy4C1cS_vg2A,Andrews On the Corner,92,4.0,42.33669,-83.0181,$$,48207
39xIvLftmPsvJ27XJaJWhg,Bai Mai Thai,151,3.5,42.33854,-83.03299,$$,48207
Kv2nRqdFIk7LZJ5ysuanOw,Ivy Kitchen + Cocktails,87,3.0,42.35858,-82.98535,$$,48214
pf325w600O3YXpcgznnmRQ,Sindbads Restaurant & Marina,170,3.0,42.3581,-82.97394,$$$,48214
lmpNZQrwlzqkh6QHO50PQg,Southern Fires Bistro & Lounge,97,2.5,42.34749,-83.00804,$$,48207
wwF7pJL6xQnhNLCE_LAtjQ,Pekin Pavilion,19,3.5,42.34658,-83.00388,$,48207
0elfv5UgBtK9DBV61Ae3RQ,Metropolitan Bar And Kitchen,4,4.0,42.35557,-82.99661,,48214
1E6uCpSBuH9YkPo0ItPL2w,Detroit Grill & Chill,9,3.0,42.35222,-82.99485,,48214
BIiZyky2ls9U69LjILdvIQ,Gabriel Hall,1,5.0,42.35824,-82.99951,,48214
NknTblUWQts1DgXSqlEd5g,Grandy's Coney Island,7,3.0,42.36121,-83.021,,48207
91psX_53qVtaqcQh626S6g,Krispy Krunchy Chicken,2,5.0,42.34795,-83.00093,,48214
MtD2Xkq7iQxmPecL7FvL-Q,Peking Express,16,2.5,42.34236,-83.01156,$,48207
06ej_eKyW6Jc1XDiZ7JayA,Planted Detroit,1,5.0,42.34706,-83.01203,,48207
Hru5n3fFGceJJxAUMNwrCw,Palace Pizza,1,2.0,42.37882,-82.97963,,48214
eyTs8krrImrkadaRdwWmmQ,Hungry House,2,1.0,42.37876,-82.97975,,48214
vxACfOEguLQNVT9BdSGx7g,21 Flavorz Express,1,5.0,42.37899,-82.99127,,48214
sr7sHEubfZ8pwYNKVFg6iQ,Coriander Kitchen & Farm,32,4.0,42.3596,-82.93223,$$,48215
C_s46ulC1rUe2Ams-vRMbg,Fairfax Quality Market,23,4.5,42.3739,-82.93366,$,48230
Wh-E6mYRfYW850vhZsTCiA,Dynasty Chinese Food,22,4.0,42.37036,-82.9481,$,48215
iy_NrKxQgr6swwfSQ7vYAw,Bayview Yacht Club,7,4.5,42.35597,-82.95232,,48215
XZyAllYZ3p9q-56_e_KOxg,Detroit's Finest Coney Island,28,3.5,42.37154,-82.94881,$,48215
HZqmb5Vac2ZpVh8yFTM3vQ,Buscemis,26,3.5,42.38193,-82.93941,$,48230
iDaKCrOowR3SUfVyQTp0jA,Gingerberry,6,4.5,42.36988,-82.95699,,48215
T0SbPak3C3CCnOljAPlqvQ,Joseph's Coney Island,8,4.0,42.36976,-82.95826,,48215
YOecYtIN7OZvzOZs8qzsTA,The Drunken Rooster,9,5.0,42.311,-83.0943,,48226
fj6oIx4uo8Jzbnzcw1qgYA,Motorcity Smoothie,1,5.0,42.36994,-82.94977,,48215
tu2YJ9ZTsLyJURPwM0HQAw,Shimmy Shack,27,4.0,42.46059,-83.65161,$$,48178
Xt3Rct7snosY5LmTysWHJw,Pita Cruiser Food Truck,1,4.0,42.2805,-83.75035,,48104
Wp_EGDpkEzNgrnJkgWTBzQ,Mabel Gray,497,4.5,42.46765,-83.10456,$$$,48030
sUPyMKRowXDpESjkUubd9A,The Jamaican Pot,322,4.0,42.44485,-83.19119,$$,48235
jMTOoUFxPhl9f1G_xeBr3A,Culantro,201,4.0,42.46189,-83.1359,$$,48220
EUidam6Za6b9jVxuuQi7lQ,Voyager,318,4.0,42.4613,-83.12578,$$,48220
lSr8zKZBf1g9nHXaHOtAAA,Howe's Bayou,320,4.0,42.46129,-83.13427,$$,48220
KFuYcqo2NZFzV7G1mQsuiw,Buena Fe Restaurant,106,4.5,42.46049,-83.16381,,48237
M2-p4rlHt5aIvdn4YS2XKA,Framebar,203,4.0,42.4679,-83.10441,$$,48030
a9OZWzwFFLHJyDORld11yQ,SugarBuzz Bakery,31,5.0,42.4638,-83.13722,,48220
pmzHgXQOQB3HdXPzB4T9Zg,Detroit Vegan Soul,141,4.0,42.40786,-83.23518,$$,48223
FSQb3qrgjdufnYZ9F5wh1w,Sonny's Hamburgers,41,4.0,42.38621,-83.23694,$,48223
3DpaDXWDty9XI-Pg9PwIdw,La Kabob Grill,18,4.0,42.40217,-83.22431,$,48223
-Rewm0oJJ3RBkrPcBI7eYQ,Universal Coney Island,4,4.0,42.39447,-83.20351,$,48227
pwA__WzEw6LzbmjKE-icHw,Metro Fresh Fish & Seafood,7,4.0,42.40264,-83.22218,,48223
W4VWHrZgTgCmy1dLISmFsw,Golden Wingz,10,3.5,42.3963,-83.19908,,48227
xVcK7aGaMNtOv8h0HxKG-Q,Omega Coney Island No 2,11,2.5,42.40131,-83.21882,$,48223
BOH97tJhGw12fr8VfoyuFA,Panda Chinese Restaurant,9,3.5,42.40186,-83.22425,$,48223
CIyImQrybeHGKj4Efq4t7w,Papa Pizza,4,2.0,42.39665,-83.20895,,48227
09V2oU1CYUku_HeP3cZatQ,All Star Fresh Fish and Seafood,2,5.0,42.38611,-83.19828,$$,48227
k-OoEQ0B8cQ1hVEi74q3zw,Checkers,4,2.5,42.4,-83.21573,,48227
Z_u1_l7aB825Zh091cZzQA,Bread Basket Deli,7,2.5,42.3932,-83.20006,$$,48227
5-VU2O6Z3Ey3VDIKr5BP1w,Rikshaw House,3,3.5,42.38992,-83.19857,$$,48227
4WQoC1vtn3K5a4v_6mBh6w,Big Star Fish & Seafood,5,3.0,42.39421,-83.19919,$$,48227
NeUYSnp-S3V1ifpnpfS7lA,Fish Express,8,2.5,42.40245,-83.22293,$,48223
KrxXZV6Zw0WUej8xfcXPCw,Billy Coney Island,4,3.5,42.38606,-83.23275,$,48223
8wDvCv3vVM6XOiEhqHKStg,Mama DeLuca's Pizza,1,4.0,42.40203,-83.22112,,48223
oWx2b1nKPuxWNodioyUUNw,Cosmos Coney Island,3,2.5,42.39507,-83.19875,,48227
4MwMnJA0ROp5xQMhJNoXvw,Something Good AKA Chef Dee's,2,4.0,42.40152,-83.19016,,48227
gy9ySCCB3Y12CSZLCw3Xpg,Spudz & Clucks,6,2.0,42.40272,-83.2225,,48223
awo8NOEYrg72HOBHFjGZzA,Great Wall,6,2.0,42.3918,-83.19846,,48227
4CCPFtzPQJyd3AHVn4bMvw,Sky Bar and Grill,2,3.0,42.40175,-83.19734,,48227
Rr9nwd68EJv12gUtEEWiQQ,Detroit Lets Eat,1,5.0,42.39164,-83.19862,,48227
vLG-7nzs6y4KzKwK-FeYoA,Topey's Kitchen,1,5.0,42.40128,-83.18962,,48227
a9hLP0J0AUjG3LQcjsWD8A,Manhattan Fish & Chicken,3,1.5,42.41479,-83.14115,$,48221
pm3jXWAZfmH7eJ04y-dQVw,Grandy's Coney Island,4,3.0,42.3949,-83.11601,$,48238
SGNikTeDbceMGx9LvHfuNQ,Manhattan Fish & Chicken,2,1.0,42.41501,-83.14099,,48221
O4OVkaGi4IhugrtMYPf_lQ,Great Lakes Fish & Seafood,1,2.0,42.43249,-83.10462,,48203
M6xt8kBsdZg0mkfN6fanNQ,Loaded On The Go,2,3.0,42.41799,-83.10939,,48203
CfvvD0oCZFHwwMvWhaEnMw,Sweet Potato Sensations,131,4.5,42.41715,-83.25789,$$,48219
qERY1Esz9ZH9p2lwzFBIuA,Maty's,107,4.5,42.41536,-83.25543,$$,48219
jUUJPLDNzBmuT4DFX1taaQ,Scotty Simpson's Fish & Chips,232,4.5,42.40031,-83.25935,$$,48223
wwYjG8fCQq2seImBV9SVKQ,Central Park Deli,105,4.0,42.44711,-83.25861,$,48033
BzNvyuZTAboVExATIgVN-w,Bob's Pizza Palace,53,4.0,42.42976,-83.24481,$$,48219
wOzDSvGal6Zp0Hh1Df-5Sw,Le Culture Cafe,214,3.5,42.44244,-83.2861,$$,48219
bGQ0-HPCqNXO66GayfFbvw,Sandy's by the Beech,98,4.0,42.39924,-83.29707,$,48239
u0iAwdI1BaxpwGinl2hffw,J's Cafe,30,4.0,42.4121,-83.24732,$,48219
M07cagyauYeLh7rl04Duyg,Crab House,80,3.5,42.42934,-83.23714,$$,48219
kCqXITW-ledomcpgNYVLCA,Mr. Corned Beef,28,4.5,42.42977,-83.21859,,48235
F9642isPBMtRJ2iTPP-CVQ,Omega Coney Island,25,4.0,42.44308,-83.26531,$,48219
WwUMBdptIRP4VtjUBeV4-g,Mama Mia's,63,4.0,42.43184,-83.29754,$$,48240
HLD0zjc55WkqJnGkIaPy_g,Murphy's Restaurant,45,4.5,42.39915,-83.29858,$,48239
0tsUJtIkH3bvLXofqaMJUg,Old Redford Kitchen & Cafe,15,4.0,42.41606,-83.25708,$,48219
p5Os_3p-fCxMMavIdCADFQ,Sun China,64,3.5,42.4137,-83.27759,$,48219
D8ZpSxAo8theCD0LRTjIXA,Detroit Wing Company,89,4.0,42.46183,-83.20139,,48075
n_SyipregWRQ2NZaUfAKxA,Kalahari African Cuisine,9,4.5,42.42935,-83.23673,,48219
5yis21fUPRU1ZhEKJYxSEg,Kabob Bistro,22,4.5,42.41362,-83.29821,,48240
ybuor3Z5MS-UnpLoVKmZfg,Original Wave's Inn,14,4.5,42.41047,-83.24216,$$,48219
I6IxoTP-U599hn4iWNuErw,JJ Fish & Chicken,22,3.5,42.44345,-83.24249,$,48219
VPk6EgZSMm90O_C6w9f0JQ,"DeAngelo's Soul Food, Deli, & More",34,3.5,42.41873,-83.27783,$$,48219
5cMaXDgM2OzPKM2ZfWSPBw,Pasta Bowl Restaurant,68,3.0,42.41542,-83.21334,$$,48235
A4QJ29pD2y36Hv0WvK7_sQ,Spud Headz,39,3.5,42.41602,-83.20908,$,48235
rSy2DnF6r0OeInT-zqFbog,Happy Garden Restaurant,39,3.5,42.41426,-83.29718,$,48240
0j21UAZDQB8gpjNUxVKhOw,Lou's Deli,72,3.5,42.45835,-83.20193,$$,48075
ZbyanL_LyTZGRZvct6c4qA,Island Spice Caribbean & American Restaurant,20,4.0,42.41575,-83.22026,,48219
n34nBZN7ZRejrFpDPaAv-g,Fat Kats,22,4.5,42.40154,-83.29635,$$,48239
6qyx0oX24HBcXP1BdeHM7g,Stackerz Deli,19,4.0,42.45903,-83.26018,$,48075
u2-Xe5sgyz2tKZ-5Nktrfg,Redford Grill & Bar,61,3.5,42.39986,-83.29614,$,48239
w6xRi0VaCAnHURS4TMrdAA,Hollywood Coney Island,22,3.5,42.40982,-83.2401,$,48219
5OcMqTqgwzbtwvg5csnatQ,Sweet Asia Cafe,64,3.0,42.45606,-83.2778,$,48033
f_M8sLfagNmA0a5icR2Z2Q,Savvy Sliders,25,4.0,42.39572,-83.27729,,48239
8fsoP7bqq275TAtBCiL3UA,Nicky D's Coney Island,28,3.0,42.44351,-83.23986,$,48219
qqqkuLryPghX9PUHaKlQhg,Olive Leaves,35,3.5,42.45637,-83.27806,$,48033
ZEUAVPf_T5Fg1PIgGY5h-Q,Views Bar & Grill,28,3.0,42.42533,-83.2785,$$,48219
val3tNOpk8wpChpUPNcvuw,Napoli's Pizzeria,25,3.5,42.41439,-83.28681,$$,48240
WqxC0U039e-GwdfCge0x5A,Duffy's Den,4,5.0,42.41454,-83.2855,$$,48219
pvLpFthZBk-1ZfxVKBkGYw,China One,12,3.5,42.42963,-83.27819,$,48219
3I0VwBgW2WLEltwbEQIbzA,Honey's,8,4.0,42.41034,-83.24147,,48219
y5AL0JsM9nBE5gKNiPPAdA,Nu Wave Fish & Chicken,13,3.0,42.44278,-83.25819,$,48219
0e2Eud7o80m00AZYPOiyvw,Rocky's Coney Island,4,5.0,42.41408,-83.28372,$,48219
RSWKwg1NpJM0cXJ1NSdn6A,Chops Grill,6,3.0,42.41079,-83.24397,$$,48219
kepsr0pfdUCDCUryiVO9Sw,Cajun Boiling Crab,6,3.0,42.41493,-83.23724,,48219
1Jd2xqpaEfkEy_rgaBu7AA,Good Cookies,2,4.5,42.41523,-83.22824,,48219
595-pTmx0drxpJz7qDcY8Q,Cheng's Garden Restaurant,6,3.0,42.41538,-83.22031,,48219
nnkz6gig4zrtJaiz0wdZHw,Street Cuisine,5,2.5,42.41509,-83.23725,,48219
X4ikR9vE8eT4SbRCh71z-w,Detroit Taco Bar,5,2.0,42.41563,-83.20778,,48235
7b_SbLC3pEMjJigqXDsflw,Detroit Shrimp and Fish,25,3.5,42.43964,-83.19585,$$,48235
WZOVTQ1FW7HTn_oCJRQrww,Mighty Wing Shop,50,3.0,42.44049,-83.20031,$$,48235
4pUgLn17JzKIdZt_Yco0Ng,Sweetwater Express- Detroit,41,3.0,42.41619,-83.20153,$,48235
DzUMlJhgpWRq5Y5kiIFiCw,China One,6,4.5,42.43104,-83.18075,,48235
OpH6PRNM1PiXc4nsk9PDBQ,Louisiana Creole Gumbo,16,3.0,42.43085,-83.17953,$,48235
xdPfZTg0XJXnim_5RtBXxw,E & S Carry Outs,10,4.0,42.41686,-83.17752,,48235
13UQQOBl89hVELZTW6Uopg,Great Lakes Sports Bar,9,3.5,42.43023,-83.21635,$$,48235
z6CPCbzYSp0Er8iWKCWPrw,Fat Boyz,12,2.5,42.43008,-83.20441,$$,48235
t9_GilZAn-rCx-uabxa_0Q,Mr. B's Soul Food,26,3.0,42.41587,-83.21569,$$,48235
nlK2C5FmKAn9YRlU1DJ1bg,Nicky D's Coney Island,5,3.0,42.43015,-83.19948,$$,48235
BjMPsMSwjI-ke89jXqVi9A,Encore Lounge and Grill,4,3.0,42.42995,-83.19863,,48235
rXO7pK6BYxaNyGPkKM46PQ,Golden Bowl Chop Suey,13,2.5,42.41648,-83.1772,$,48235
U8cAPKkt43o0I8hrPL6x1Q,Olympia Coney Island,7,3.0,42.41572,-83.19851,$,48235
CwOi-5owDhYyahsNvoTxIg,Lon's Coney Island,4,4.5,42.42984,-83.21534,,48235
92CzYfPpcPV9mI0xab_3JA,House Of Gumbo,3,3.5,42.41599,-83.18002,,48235
xmhlyGWZuatlyN_nmcz8IQ,Sliders 313,2,4.0,42.41686,-83.17688,,48235
L6uFCK5UBgXpwV1XKKmwdw,Los Chapos,2,4.0,42.4299,-83.2185,,48235
hHk7Pc2hGORfS6X9NulHjg,Sinai Grace Hospital Cafeteria,1,4.0,42.419,-83.18293,,48235
8a-apCQPY5lxdsRDmKqA_A,Seven Mile Shrimp Palace,1,3.0,42.43034,-83.19802,,48235
JkQ-hGG8Ds74Y6hOGgmKuQ,Err'Thang Smoked,3,4.5,42.41631,-83.18539,,48235
r4hjY8ExU81e0UK5_S_5vA,Tubby's Sub Shop,4,2.5,42.44559,-83.18288,,48237
F_yjmNxW3vt_tg9B5uY1aA,Chef's Corned Beef House and Coney Island,2,2.0,42.43113,-83.18068,$,48235
onItx4rH0k1tzly2Mrcldw,Nu Wave Fish & Chicken,4,1.5,42.41634,-83.1889,$,48235
HZ-QuOaeaVgQsJeR3U_1jQ,Olympia Coney Island,1,2.0,42.43031,-83.19923,$,48235
mURau2Lec6wdp5tEKGFcYg,Beirut Bakery,149,5.0,42.38567,-83.29437,$,48239
J0ngl_R1bdpHi-44olMtqw,Pho Lucky,252,4.5,42.35716,-83.2734,$,48239
VLFbfVx0MJ9TfGZ1xPNxBA,What The Pho,257,4.0,42.36992,-83.31494,$$,48150
IljjPJU2OoJTwlo_pcjPjQ,Detroit Pizza Factory,146,4.5,42.35436,-83.27493,$,48127
lKBAx6m98DjwSbCNW_zkPw,Mama Mia,153,4.0,42.3699,-83.31697,$$,48150
yPXhyb86z8no7fnCjZ5ETg,Kabob Inn,120,4.0,42.356,-83.27377,$$,48127
V7yaP7c1C52psr_DVcpoDg,Lefty's Cheesesteak Hoagies,301,4.0,42.41223,-83.33557,$,48152
GWk7IyOiJHSFBxEVxDz6hg,Original Gonella's,34,4.0,42.36811,-83.27584,$,48239
itsEoa16txYJzTpeKvSqbQ,Amico's Pizza,54,4.5,42.35575,-83.32188,$$,48150
Yl32TEU70kcFpc9-_ZGFEg,Shawarma Island,34,4.5,42.37052,-83.30921,$,48239
ssk-4cU-KTi2jXo7fOA2Rg,Lila's Pierogi,35,4.5,42.39826,-83.3211,$,48154
mJPNvc8CLI_YyhorgSPfZw,AlJoom's BBQ,38,4.5,42.35525,-83.27385,$$,48127
4T0LDsGv6NEl52D8InENyw,Wing Snob,115,4.0,42.39848,-83.32502,$,48189
aHGXI9DSilQwA4BorZxQuQ,Frank's Diner,39,4.0,42.37117,-83.29393,$,48239
vW7c8GRRURchNKp_6J3jcA,Burger Shack,59,4.0,42.35526,-83.27396,$$,48127
BZ0Byt1LDotmcYNWfv3I8g,Szechuan Empire,132,3.5,42.39792,-83.33349,$$,48154
vOUXnomHe1IbAf2HerJ9UA,Mr Chicken of Redford,38,4.0,42.37027,-83.30485,$,48239
GFCZRLGlq1SB-H1V2ILvvw,Leda's Coney Island,42,4.5,42.39737,-83.33666,$,48154
OBm6duFw89gNKm_TypaUBQ,Louie's Pizza Express,20,4.5,42.35707,-83.29349,$,48239
7lq-cS5i6VEK-t2WKI5AGA,Red Ruby Restaurant,53,3.5,42.35567,-83.27468,$,48127
bHrZdKmstB7GmxcEIdPMOg,Marko's Cozy Diner,56,3.5,42.37043,-83.31119,$,48239
O3cvWH7uQ_IQu08lE_5eSg,Oasis Mediterranean Cuisine,93,3.5,42.36901,-83.33447,$$,48150
fT4M65A8uI3crv_--MskEA,Wine Palace,39,4.0,42.38496,-83.33445,$$,48154
IADVz2xN4RSi3UiWi7CtMA,Bread Basket,106,3.5,42.36822,-83.33255,$$,48150
_pDPyxaFrAq7FUEmy-vfcA,Steve's Family Dining,79,3.5,42.40293,-83.33408,$,48154
MI-ZLWp-PnFqhzaS0sabCg,Chin's Chop Suey,62,3.5,42.36904,-83.32185,$,48150
1qjeBvWXu9cF_0_K6eF-QA,China Kitchen Express,58,4.0,42.41028,-83.3351,$,48154
kVQqkUhXQUWMDcRDxgpbWg,Old Mexico Restaurant,131,3.0,42.39793,-83.325,$,48154
lhRyZfBJ7YK4PhQrtdCkcA,Pump 5 Grille,14,5.0,42.39777,-83.33488,,48154
KTjbzBEOYX5K-nmXvE4nxQ,Indian Kitchen Carry-out,13,4.5,42.38524,-83.31562,,48150
vevth5xwN6kE3g37u51GQw,District 12 - Dearborn Heights,18,4.5,42.35056,-83.27466,,48127
te0FcgQvkzBx55ucnAqvSw,Bella Pizza,12,5.0,42.34774,-83.33063,,48185
zyzttKrZgI2boCF9CSDDnQ,Ricky's Sub Shop,134,4.0,42.33755,-83.19576,$$,48126
cuemikopY0jp622-5_FRDg,Ford's Garage,950,4.0,42.30719,-83.23776,$$,48124
qDLHimsYJKHcqL_4V4p4bQ,Brome Modern Eatery,672,4.0,42.30607,-83.24534,$$,48124
klkmynuK91fbGMjmP_TSYw,Xushi Ko,434,3.5,42.32755,-83.20337,$$,48126
22lGVT8bVoJ8PpdD05Uvig,Unburger Grill,154,4.5,42.30628,-83.24444,$,48124
PL_CW2a8Q7OKzM20W94ekg,Sahara,244,4.5,42.30278,-83.25656,$$,48124
wpniVBN_d5hg0LqHY7LudQ,Buddy's Pizza - Dearborn,362,4.0,42.30563,-83.24708,$$,48124
oCwO_05Tn2ruZDkytewnIw,Sheeba Restaurant,365,4.0,42.32076,-83.17959,$$,48126
s8x1eRJyIKX0xrjNLTFG7w,The Himalayan Flames,166,4.5,42.30517,-83.24932,$$,48124
UxGilCouJPZ7e3HmhQFngA,Zo's Good Burger - Dearborn,203,4.5,42.3204,-83.18153,$,48126
TJ_md2b1clc-zPor-TP10A,La Fork,289,4.0,42.305,-83.2477,$,48124
jcIOgzXEqkCtwNaU4qjU6g,Al-Ameer,607,4.0,42.3445,-83.16741,$$,48126
bBNJhTSqgY1q0aKuSuxM1Q,Hamido,334,4.0,42.34382,-83.17425,$,48126
4bB8bCaRvXryWHbhOMex7A,Oyaki Sushi,386,4.5,42.32745,-83.29912,$$,48127
2vAj53ZEDNDrfvYuZpvQzQ,L.A. Bistro,245,4.0,42.30669,-83.24346,$$,48124
m5FOUuk5BKTr6j2HeuleCA,Paradise Biryani Pointe,134,4.5,42.30569,-83.24461,$$,48124
VZf2lOhhhwSugCv6IK4V9g,Tria,121,4.0,42.32048,-83.21683,$$$,48126
PSGMS7SUs3m5Pp_lOpUjKA,Malek Al Kabob - Dearborn,121,4.5,42.30568,-83.24529,$$,48124
29XQHQY8qVpYLedrGDoPqQ,Famous Hamburger - Dearborn,199,4.0,42.30506,-83.24807,$$,48124
BuAt-89v75SdeEN9Sp-c3Q,A1 Dogs&burgers,62,4.5,42.34403,-83.1956,$,48228
5Il4NYoAi0_McQ67vyoUAg,Mint 29,276,4.0,42.30641,-83.24435,$$$,48124
ojg2d0WVjCVCt7JRWzc7pA,Cedarland Restaurant,223,4.0,42.34386,-83.17122,$$,48126
Ljkq2PNQ5nB8vQKz3hUvpQ,Victory Liquor & Food Store,27,4.0,42.34382,-83.20394,$,48228
zKroPyosAy1MBuBJ5g1OJw,Capri Italian Bakery,77,4.5,42.32108,-83.19443,$,48126
0FHwQb52hfyNhhtw07WkTQ,Al Tayeb Restaurant,103,5.0,42.31694,-83.31146,$$,48135
x4KLlXkaZtrBL2Gq8qUyMA,The Butchers Grille,240,4.0,42.30335,-83.25562,$$,48124
OkB9eGXfsPYUI6_Se8lpbA,Big Apple Bagels,39,4.5,42.32741,-83.25707,$,48127
zpwMCd59GNXWF6yGlBUKgQ,Qahwah House,54,4.5,42.3064,-83.24435,$,48124
hhhTZfmmPmQ7BMnmAVgoXg,Al Chabab Restaurant,84,4.5,42.34419,-83.17043,$,48126
O_3W3hgzqij2Pm5L7snzFA,Bangkok 96,483,4.0,42.29398,-83.27201,$$,48124
U4c7y-xSHUEFBD_oz7Ol9A,The Heights Meat Market & Grill,90,4.5,42.32703,-83.28291,,48127
QG1gw2rlyxzVcIHnBMKV6w,La Pita,311,3.5,42.30254,-83.25461,$$,48124
txYrixg-p7qm_js8HQOrZQ,The Fish Market,79,4.5,42.31981,-83.17593,$,48126
3jL34--yTg5a8bEhGlXH8Q,Kidcadia Play Café,42,5.0,42.32097,-83.17997,,48126
PZQezNeng_6eLPKNHt10rw,Miller's Bar,532,3.5,42.30112,-83.26719,$$,48124
WJWqeR43tJUuC3JMnVxJyg,Tim Hortons,47,1.5,42.3009,-83.2686,$,48124
8WiiHt9JA-UhoddMx-aV5g,Jimmy John's,25,2.5,42.281,-83.20913,$,48101
-OiyDDueDlYG6qdYOyawvg,Tim Hortons,24,2.5,42.32933,-83.15978,$,48126
J__fqH8cdaXwJefkQ1el8A,Henry's Bar and Grill,2,3.5,42.32048,-83.21683,$$,48126
YzOrocw7OYwCyH_lxtbuZw,Eddie's Fresh,3,2.5,42.32419,-83.2077,,48126
ZMaNFwhqBrV5_9O7_ZcGRw,Out To Lunch,4,3.0,42.31588,-83.21718,,48124
c_kzt907MiSj8Z59kWa3PQ,City Hall Coney Island,3,4.5,42.27084,-83.13535,,48218
Okp_BzlosKQmeXBVU998hA,Boardwalk Fries,9,3.5,42.33023,-83.15728,$,48126
Nx8iCy4FzozQtaYnplnKzA,Sal's Pizza,9,3.0,42.32636,-83.28783,,48127
fGBBG68KFlMRZBK3-O4G0g,Captain Jay's Fish and Chicken,33,2.0,42.39938,-83.27619,$,48239
4spi11qUgaA3TYJHE5UV4A,The Dog House,3,4.5,42.34462,-83.16303,$,48126
l0wLIsTz2YuU3koURNRQfw,TuTu's Chicken and Fish,6,3.5,42.39438,-83.27745,,48239
5fHYIjRfmuFHLt-DMM0SAA,Di Maggio Italian Bakery and Pizza,11,3.0,42.41366,-83.29721,$$,48240
-okpeiK2ug5FnJ3ijTGsVg,Jersey Mike's Subs,5,4.0,42.32662,-83.29883,,48127
UfDaDR_Mo3vkJlT2nkiMmg,The Lava Kitchen,3,4.5,42.32627,-83.30097,$$$$,48127
Rsb8zUct7B2ffmtrgd53HA,China Garden,2,2.0,42.35732,-83.23427,,48228
9-9r_UV42EE4jhd_Abs7Qw,Oakwood Coney & Grill,2,5.0,42.2823,-83.17539,,48122
yK8Kfz9mOypMs-iuizptwA,Crafty Crab Allen Park,16,2.5,42.27772,-83.21606,,48101
Tk8k4KuWnAg79ogwqXyXVg,Golden Halal Pizza,9,3.0,42.34401,-83.1637,$,48126
dkoRwf4O-E1k0h0BFG1lfA,Parts & Labor,2,5.0,42.28446,-83.18589,,48122
5gA-5VVacarzVcKLMJ6qQA,Cosmic Burrito Tequila Bar,6,3.5,42.43377,-83.30159,,48240
79G5UFGFIFL5GQB21qpWrw,Papa Johns Pizza,12,3.0,42.28008,-83.27026,$,48125
IfgQog-22jDyouBfzF5W8Q,Algottis Grill,3,4.0,42.31902,-83.17541,,48126
nqjw2662erNpyS0jStKXpA,Aden Restauran,2,5.0,42.30426,-83.1446,,48120
Q6m373pC2L-W-sWPEvpDCw,Hogz Backyard BBQ,2,5.0,42.32748,-83.32739,,48135
y_hBBrNKstqMl7An84kpag,Royal Grill,8,3.5,42.36976,-83.13834,$,48204
vZQVkYpp3WckOPSsCoIWgg,Open Casket Bar and Grill,2,5.0,42.29558,-83.20192,$,48101
ZZ0xq2ICWRlD0s_eCv6Wog,Captain Jay's Fish & Chicken,16,2.5,42.30298,-83.32956,$,48141
HBfWUDNg4iImahFMht2M8A,Panera Bread,2,5.0,42.35185,-83.33066,,48185
wCGVJaWxGnnBjC9YA7i1wQ,Belly Buster’s Pizza and liquor,2,5.0,42.41276,-83.31699,,48152
7bhpcorU3CAd33KJefB0EQ,Mink,36,5.0,42.32956,-83.06587,,48216
gwRDH8gr9Iu_mvMkaYAoVg,Folk,119,4.0,42.32956,-83.06589,$$,48216
3dNJM-qnTkxLZsNV3S5RHQ,Nemo's Bar,101,3.5,42.33164,-83.06543,$,48226
aOCjkNlmbF6d1VvbZfXzJA,UFO Factory,60,4.0,42.33219,-83.06683,$,48216
eKKnB6e0l_66cM_rfU6Ang,Sheeba Express,41,4.5,42.32539,-83.06046,$$,48226
DOGvOBAUbXuECa3g-GYjaw,James Oliver Coffee,11,5.0,42.3319,-83.063,,48226
F-0LTiL6KY9fPrIDkt2m7w,Taqueria Lupita's,331,4.0,42.32289,-83.08538,$,48216
iK0FUjpzLMm0mVVRk0RjZg,El Asador,354,4.0,42.30476,-83.12208,$$,48209
rwCtf0txoy3Ow1CocE4x5A,Duly's Place,155,4.5,42.31813,-83.10176,$,48209
tfCSDMnDEdWPOoBPk6jqog,Roman Village Cucina Italiana,240,4.0,42.3058,-83.14436,$$,48120
cVqtIOgBM7NPuK0IQGloaQ,Flowers of Vietnam,227,4.0,42.32025,-83.09654,$$,48209
AjlfznP9abRtjed0E35_qQ,E & L Supermercado,56,4.5,42.31673,-83.1062,$,48209
elyOjCsl37-lVi41AgpiEQ,Sheila's Bakery,45,4.5,42.3105,-83.12633,$$,48209
7CQX2McOfxe3lHAKBw_2rw,Los Altos Restaurant,97,4.0,42.31464,-83.11996,$,48209
6exj1g8dkR6z1TB--JfIpw,Mangonadas Del Barrio,36,4.5,42.30176,-83.12737,$,48209
6Y88x6ZVJVL1nCwfygy9lw,Glass Onion Griddle,415,4.5,42.25729,-83.21232,$$,48101
NhqrYxqeB2uQgQKYLdCIWQ,La Jalisciense Supermercado Y Taqueria,36,4.5,42.32193,-83.09133,$,48209
YtZaBxnCFDMX3Hv0FsHk-A,Armando's,247,3.0,42.32093,-83.09472,$$,48209
nVlsHOPxFmFnA9wj_DS_UA,Xochimilco Restaurant,473,3.0,42.32322,-83.08495,$,48216
p6rJIrlZE3gQdDykAngnKw,El Catracho,29,4.5,42.31923,-83.09741,$,48209
-FIq8Wuw7CU4a30-ykAJtw,Sicily's Pizzeria & Subs,66,4.0,42.32372,-83.08766,$,48216
ZvOxMJyonxPyh0BsNY7LfQ,Pollo Chapin,66,4.0,42.31946,-83.10257,$,48218
tklNK6yc5rlwldBI_TH_-Q,Tamaleria Nuevo Leon,67,4.0,42.32635,-83.07999,$,48216
U3wG7XTb07Rf-7n4zjwtBQ,Mexican Village Restaurant,243,3.0,42.3255,-83.07823,$$,48216
1t6ETjkFiNTI12e-pdW-Qg,Chicago's Pizza,30,4.0,42.31955,-83.0981,$,48209
uASIgX2FW241VCmss_DdpA,Mexican Town Restaurant,132,2.5,42.323,-83.08535,$$,48216
0DgRrZiJ9omrxJHnj-92HQ,The Goblin,15,4.5,42.32537,-83.07776,,48216
lDlGiAaRj8phOTNn6Eqt_g,El Paisa Taqueria Truck,9,4.5,42.31926,-83.09833,$,48209
NKRYZYZfc0f3KqfS8v0yXQ,Rocky's Road Brew,10,4.0,42.32029,-83.09637,,48209
k2jhJkHA6bCKX6wQ7yL0HQ,Giovanna's Lounge,6,4.0,42.32349,-83.08724,$,48216
UIBuQD0tyFynCsi5tRdNEQ,El Comal,2,4.5,42.32198,-83.09185,,48216
yrTip9wv4ZpSlaQQhmGY-Q,El Palenque,8,4.0,42.31832,-83.10126,$,48209
iE3YtLuvjUa0OG90gcApQQ,Taquería Chilango,2,4.0,42.32203,-83.09113,,48216
83Gj3v9wqfTGj9J3LGxovw,Lajalisciense,2,5.0,42.32534,-83.07905,,48216
B5Ts7n5DzkbFNcM91juqPA,La Michoacana Tortilla Bakery,2,4.5,42.32338,-83.08524,,48216
9AGFEH30lkWnknrowaOYYw,Citgo - Mexican town Deli,3,3.0,42.31989,-83.09587,$,48209
ko1WPwcuifvVoxav9gyZxg,Supergeil,42,4.5,42.33149,-83.07992,$$,48216
DLSVSJQTsPg3j8yCVSVhDA,Nancy Whiskey,74,4.0,42.33511,-83.07245,$,48216
YCPkfVTUdPMVa3i81GokiQ,El Taquito,25,4.5,42.31676,-83.10791,$,48209
9LzuwVAOA75QKZMaGN1DOw,Los Corrales Restaurant,41,3.5,42.32058,-83.1036,$,48209
YzBdWAzhis3zwLWKvTT1hQ,Taqueria Nuestra Familia,73,4.0,42.31304,-83.12345,$,48209
6nryFmYFrSG4CsfKnRP03A,Family Treat,17,4.5,42.30973,-83.12564,$,48209
NrPV3G3t88icreXnpC5vvw,La Terraza,45,3.5,42.30979,-83.13072,$$,48209
_k4VHicPw7TWO7Tc4gM-lg,Tacos El Caballo,18,4.5,42.3057,-83.1234,$,48209
DpZvOi89O7TgUXbJhUS93w,La Palapa Del Parian,33,4.0,42.30476,-83.12957,,48209
AumVAas0JHVNHkFQbl5rDQ,Loncheria El Parian,20,5.0,42.31606,-83.1163,$,48209
UmU67SX3dP6ZVyIM1l8mZA,El Salpicon Detroit,26,4.0,42.30967,-83.13208,$,48210
OaYgGaVwsilexmni0ONSfQ,Alnawras Restaurant,31,4.5,42.31067,-83.15251,$$,48120
3fGFSWOS_fkoFImgzhXj8A,Pollos Los Gallos,18,4.5,42.31648,-83.12212,$,48209
iGt8GudSXK96GoTnqBQzWA,Senor Lopez Mexican Restaurant,120,4.0,42.33138,-83.13288,$,48210
P6wxHO901YhCeWdoRndzaQ,Mi Pueblo Express,15,4.5,42.31677,-83.12367,,48209
ykQEyYn6NsKloqh1VpvMBA,Los Dos Amigos,23,5.0,42.32797,-83.12931,$,48210
lFANU-FD-KdAGknqR8NeJw,Las Cazuelas,41,4.5,42.33054,-83.11956,$,48210
Mlny2Zf51aRYMqMSq8MPYg,El Rancho Mexican Restaurant,63,3.5,42.31637,-83.10547,$,48209
-9oG-2ZvnPkyksXCImkOfg,Loncheria El Parian,11,4.5,42.30156,-83.11935,$,48209
6_93HrUJx3Sh3ZQ1evePSA,Mi Lindo San Blas,43,3.0,42.31522,-83.10992,$$,48209
KtzkAmG3BbbPQeN7CEwEMw,Tortitas El Rojito,9,4.0,42.31548,-83.11674,$,48209
D--OKLkZ7QRBExzE4abpvw,Triangulo Dorado,10,4.0,42.3107,-83.12834,,48209
jx9sVkI6_0kHbPPE00gjgA,Delray Barbecue,7,5.0,42.29585,-83.111,,48209
kZrmz5S9JxV2X8vPYljVSA,A & L Ham Palace,9,5.0,42.29542,-83.13079,$,48209
33no18cHNuH_0GrGO_JJ4Q,La Posada,7,4.0,42.30934,-83.12525,$,48209
JWL2m6f-Gc2JVObc3dSGHg,Papa's Pizza & Bbq,14,4.0,42.41698,-82.93603,$,48224
ypaCf8QVmXNDJtZFKy5GWg,Buddy's Pizza - Grosse Pointe,45,3.0,42.41816,-82.9108,$$,48236
EUjfwzNe9wY_hyLmfOkWvg,Alexander & Polen Meat Market,15,4.0,42.42156,-82.91068,$$$,48236
mh-aFLf_zEGG1yvOAz8jdA,Big Burgzs,11,3.5,42.40867,-82.92312,$,48224
vvZ4Z73_w0jayCMEDx2lLA,Mr C's Deli of Grosse Pointe Farms,12,4.0,42.41282,-82.91172,$,48236
WI66WkAchY-m8Ll7oKUPtQ,National Coney Island,32,2.5,42.41642,-82.91111,$,48236
vd49JNet-qX95UHnxC7CsA,Rob's Deli,9,3.0,42.40538,-82.93073,,48224
2UgKQZnTOkRbCtVRI_LAyQ,Detroit Wing,5,4.5,42.41492,-82.91169,,48236
c0QgEtgI-YkDBzsC-GRn-g,Burger Pointe and Wings,11,3.5,42.40057,-82.91792,,48230
QWFATqp31rpaVL8iSVSxmA,Sweetwater Express,13,1.5,42.41544,-82.93885,,48224
fCbF4lR0RLj3BIacTq82UA,Papa Johns Pizza,14,2.5,42.41629,-82.91125,$,48236
k6GNl9Dl-JW0NxRUQEz1MQ,Firewater Bar & Grill,1,4.0,42.41496,-82.93948,,48224
K3hUowT0emWknYFXSehtSw,Larry's Blazzin Barbeque,1,5.0,42.41867,-82.95661,$,48224
VywesGGlXNRy-j-rMpEXIg,Zorba's Coney Island,10,4.0,42.4206,-83.00311,$$,48205
v8-BY0-syMz5jmL-DevyQA,Me And My Girls,11,3.5,42.43473,-83.00276,$$,48205
qksygNVuH7PprcsGEDXOgA,King Kong Burgers,6,3.5,42.43472,-83.00304,,48205
l8inYT6_tQIbzm-8ky8PdA,Alinosi Custom Chocolates,2,4.5,42.42355,-82.99346,,48205
v9yry5tolSgz1aGWk2gecg,Prince Pizza,2,4.5,42.43453,-82.99089,,48205
vcupwzVhArn3V0w5EwnlXw,Leong's Chinese Carry Out,11,2.5,42.42419,-82.9843,$,48205
TufwB-FCgDWaGOsaRKRRoQ,Motown Cafe & Grill,8,3.5,42.43932,-83.0239,,48234
vr8wmghFoLzidpoQ4EPRig,All Seas Fish,3,3.0,42.42018,-83.00684,,48234
2NnnkyZyYMXRZWy2Hs0nRw,Number 1 Chinese Food,2,4.0,42.43382,-83.02258,$,48234
i48-ioAXkkJLEHP9YRwa0Q,Robert's Coney Island,4,2.0,42.43494,-82.99441,,48205
UU9NjPO3QKo2tsU4TlfWGg,Fry Guy,1,4.0,42.43116,-82.97983,,48205
XfTbWvX-6uRS78EsD835Gw,Wing's Chinese Restaurant,3,3.0,42.43115,-83.0238,,48234
_uPUwTQAO5QF_eyVPynmsQ,China One,1,4.0,42.42128,-82.98658,,48205
_sJ7FJkTwgH4rPQumKVypg,Royal Fish & Chicken,1,1.0,42.43456,-83.00602,,48234
I0DA6dvzhsH0sZjGqtKY1w,Captain Jay’s Fish and Chicken,1,1.0,42.43366,-82.9791,,48205
9qQqGl9c_25702kUXmqVuA,Villa Restaurant,118,4.5,42.4546,-82.96515,$$,48021
3pHWk4s6YdbJskyElcV2Rg,Bommarito Bakery,233,4.5,42.45474,-82.90238,$,48080
GvANAnfg7cp7Did9lPmjfw,Detroit Wing Company,209,4.5,42.4653,-82.94085,$$,48021
KDKmahaWGgSCSBx0PuUHKA,Sushi Zone,84,4.5,42.46511,-82.94892,$$,48021
adt0cf8tKEHbNC8TV2jE5A,Boff's Middle Eastern Cuisine,71,4.5,42.47805,-83.01517,$,48089
Bx15_wlPlgAkNgdHmwTiqQ,Martin's Ham & Cornbeef,86,4.5,42.47439,-83.02662,$,48015
8KL-sBqF8OaqKep8Cdd5BA,SpagBurger,126,4.0,42.46515,-82.94372,$$,48021
JWgL3ScWOPkJ9Y7W0Yl5bA,Eastside Bagel,144,4.5,42.45476,-82.91306,$,48080
8VzMsO_GU4BSqcaFNQ1jLw,Amarin Thai Cuisine,178,4.0,42.50662,-83.00857,$$,48093
wMADMl9y589J8gNqhUE4cw,Geneva's Burgers,39,4.5,42.4507,-82.94321,$,48021
7xDBiedXHVfjbh2ZKacBig,Plaza Mexico Mexican Restaurant,190,4.0,42.46506,-82.9311,$,48021
k6l0cf6Q6G5KIRf5xCy57A,House of Reuben,29,4.0,42.4501,-82.97266,$,48089
Nc7HcPipFxOssFPLmjB--Q,Taqueria Alma,96,4.5,42.48026,-83.0275,$,48015
cZTATKwEZ-BNhikQZ_Bg-g,Little Saigon,141,4.0,42.50672,-83.08674,$,48071
jQJC5hdV4wUfBYcS5NwMkw,Conant Cafe' & Grill,13,3.5,42.3964,-83.04818,$,48212
KCYKlUoRCVqquVE-GAbACg,Ham Palace,4,5.0,42.41776,-83.05476,,48212
fIzWWwg6ql42PaMAal6ZyA,Joe Ann's Bar B-Q,10,3.5,42.42077,-83.07001,$$,48212
FRV3MH4JMzQcYUA9PcvYPw,Crepe Day-Twah,9,3.0,42.40602,-83.05789,$,48212
p8DA6gg5YFa6b2c3gnHHxg,Mandee's Jazz Cafe,6,3.5,42.41916,-83.06374,$$,48212
o9WddlfDIyR1fNdV8_VhSA,Simply Spanish,10,4.0,42.33066,-83.05019,,48226
quSjheAztJ9aS5oE1SLnNQ,Wing Fellas,2,4.5,42.40076,-83.06084,,48212
VXbbwwhaVfBalwQ0-srmSA,Fresh Fish House,11,3.0,42.39391,-83.089,$,48203
WhUXyMbGwqhe-kNFK2qEsA,Modhuban Sweets,1,5.0,42.40905,-83.05785,,48212
