id,name,review_count,rating,latitude,longitude,price,zip_code
1VV8wL1WP28L4sZrZoueaQ,Tongue In Cheek,543,4.5,44.971,-93.0738,$$,55130
_-ZBeb_ZnIQ0hiIFWu83lg,Brunson's Pub,264,4.5,44.97005,-93.07317,$$,55130
QKXjOY3RvzqxBkQ93M7SiA,Mañana Restaurant,150,4.5,44.96122,-93.06709,$,55106
j0YvcUGr9VWsbvVpdLGUJA,The Buttered Tin,617,4.0,44.951,-93.08887,$$,55101
izTTW3qoTSNSBij9GreUWA,Swede Hollow Café,139,4.5,44.95926,-93.07185,$,55106
WbEiSMQA4q9qQlUxWkUYyQ,Mama's Pizza,267,4.5,44.97035,-93.10613,$,55117
4oL0I39z4lMwkU6MP8HAXw,Catrinas Cerveza & Mexican Grill,327,4.5,44.96409,-92.98378,$,55128
TKIdb9xKBLltZTfkozJsGQ,Red Cow - Saint Paul,715,4.5,44.94671,-93.11676,$$,55102
m7Tq7AD47AaFVBHDEg9u7A,Cafe Astoria,415,4.5,44.94119,-93.10774,$$,55102
UwqfYwiOM_ornDPidGVzPA,Meritage,415,4.0,44.94633,-93.09659,$$$,55145
Ake0GM-CHUZV3V1Jdmet-Q,Saint Dinette,281,4.0,44.94981,-93.08605,$$,55101
xg7OHvNfGZH8mahsXFauUQ,Cossetta Alimentari,841,4.0,44.94387,-93.10436,$$,55102
nRLL9tf_d9MNU_2aUdgPNA,Moscow On The Hill,465,4.5,44.94666,-93.11562,$$,55102
NRfDzT-r3X-Qccq-IlSvoQ,Holman's Table,163,4.0,44.94193,-93.06486,$$,55107
3Kw1Bl784X7q2nD2k9y2wA,Big River Pizza,132,4.5,44.94979,-93.08584,$$,55101
ii_VnAfzw3OzcNPh2CpNiw,The Little Oven,203,4.0,44.96319,-93.02509,$$,55119
ryiI6WWSET4R91130AewoA,Magnolias Restaurant,112,4.0,44.97397,-93.07371,$,55130
71zL80qsJaL2gfWjg4pdiQ,Black Sheep Coal Fired Pizza,303,4.0,44.9513,-93.09444,$$,55102
8iaDvOZUmBXO8kFuedbe8A,iPho by Saigon,425,4.0,44.95547,-93.12977,$,55104
SnmnGS3sXOfE2Ky7S8Sohw,Tea house,175,4.0,44.95082,-93.02941,$$,55106
pf5fPPLzwpK0GfAG13iRHQ,Trung Nam French Bakery,236,4.5,44.95605,-93.131,$,55104
0IOrv41ojAMvd0zqrxMhHg,Handsome Hog,546,4.0,44.94675,-93.11642,$$,55102
M-SqKKZt923denxEdKyM_A,Eastside Thai Restaurant,134,4.0,44.9678,-93.07366,$,55130
w39dfvophrkNLCncK7VRwg,Karibu Grocery & Deli,27,5.0,44.96276,-93.07415,,55130
Gk7276TSMAJwX2nO3Y6zNA,Afro Deli & Grill - Saint Paul,156,4.5,44.94727,-93.09649,$,55102
o9xAQsBsQWS0HgtJNFmCOw,Taqueria Los Paisanos,76,4.0,44.96238,-93.06563,$,55106
a2gi_mYKWmk6l3L5ppDWHw,DeGidio's Restaurant & Bar,310,4.5,44.93931,-93.11031,$$,55102
m7CPabomRbUIKAZsKsYMAw,Cafe Latté,630,4.0,44.93964,-93.13603,$$,55105
B2EOAVr_MVmJuH60VXRsTQ,I Heart Pho,93,4.0,44.97727,-93.06468,$,55106
5WqQTSLdM2wBIKLZHU5wxg,Obb's Sports Bar & Grill,104,4.0,44.94892,-93.0431,$$,55106
L9BGV0HUBR1YPXZuT0f5rw,Thai Garden,239,4.5,44.95547,-93.11826,$,55103
D7FqJSI4NVxp0hc5hot3qg,Babani's Kurdish Restaurant,131,4.5,44.93969,-93.08848,$$,55107
gpy5XrMcYX-KNETYF9ctTg,El Burrito Mercado,250,4.0,44.92997,-93.07747,$,55107
YfRxjH7-pw44hzKiPG52gQ,The St. Paul Grill,263,4.0,44.94503,-93.09588,$$$,55102
qXnVyTYUPHQjShQ1k2Tkeg,D-spot,417,4.0,44.96096,-92.96165,$$,55128
0psSArKoqKrBGSrBBcX2gQ,Cheng Heng Restaurant,246,4.5,44.95546,-93.11943,$$,55103
KYVBagBhXLgJzROgjaO4tg,Revival - St. Paul,554,4.0,44.9467,-93.12235,$$,55102
5TM5cMsboMe2-DTO4L3tUg,Yarusso Bros Italian Restaurant,131,4.0,44.96086,-93.07746,$$,55130
UmTzq4inEChuM-XeFyTPDA,Dark Horse Bar & Eatery,220,3.5,44.95099,-93.08808,$$,55101
2yGzhH_Zzo9OC1HxkJ4piw,J. Selby's,369,4.5,44.94635,-93.13665,$$,55104
IyYjMNJncHgxrpGU-_LlmQ,Nino's Pizzeria,80,4.5,44.99207,-93.00527,$,55119
fafGGHMCo58hr4sxsYa5qg,Pajarito,253,4.0,44.9353,-93.11637,$$,55102
-CKaRMZkXBx_OR-xSPBFsA,Trieu Chau Restaurant,282,4.0,44.95544,-93.12155,$,55103
qaSXUBsjaO7eg-RPYMsLVQ,Ari's Best Steak House,95,4.0,44.99171,-93.02505,$$,55106
79h5KMdyrWfP8CoqwY-CZQ,Parlour Bar St. Paul,203,4.0,44.94236,-93.1058,$$,55102
fFmia6sESwXVuwK8MaoCBQ,Kyatchi,95,4.0,44.94926,-93.08356,$$,55101
4v9Bls_R9JpwdGrIcX4rxg,Mickey's Diner,397,3.5,44.94736,-93.09811,$,55102
UymNBfvZrVTMkIcp-BJvtw,Just/​​Us ​E​a​​t​ery​,52,4.5,44.94914,-93.08553,$$,55101
dk0NRG_yQ_FVhJuCVSSFQQ,Hope Breakfast Bar - St. Paul,252,4.0,44.94118,-93.10803,$$,55102
F1KI7keQ9Vc92KiisMJDsw,Yoerg Beer and Saloon,41,4.5,44.95697,-93.07222,$$,55106
5nPMvuJX_kEwnYz0M1c4Rg,The French Hen Café,281,4.0,44.94643,-93.12209,$$,55102
1-lPP4b1D0FwwoR4_077vA,Ruam Mit Thai + Lao Food,255,3.5,44.94783,-93.09853,$$,55102
mrrwkwUj9D9WbFWqv9ZVuw,Brasa Rotisserie,417,4.0,44.94027,-93.13284,$$,55105
IBcWZ2zlXAO3trgft-CTpw,The Bulldog Lowertown,293,3.5,44.95031,-93.08767,$$,55101
lvz36pj0rgT1u6H7T-hQbQ,Taqueria Los Ocampo  - Arcade,74,3.5,44.96833,-93.06615,$,55106
YjbP1m5lGTQmQnMPH2TRcQ,Mucci's Italian,242,4.5,44.92668,-93.13338,$$,55102
ZDYdJLi4XoY07DrJKjaTOQ,Red Rabbit - St. Paul,253,4.5,44.93982,-93.13321,$$,55105
9xZtiSKSvuP0ETl1hT9mqQ,Tavial Grill,230,4.5,44.92383,-93.13285,$,55102
yY0wiz88CSdFiR1qOGpzqg,Barrio,271,3.5,44.94996,-93.08805,$$,55101
8FEFGBNG26HI8WNcPA7SDQ,WA Frost & Co,492,3.5,44.94648,-93.11585,$$$,55102
PXDU1hlzwkR--e_DxFg-8g,Arirang Korea Restaurant,56,4.0,44.96188,-93.0654,,55106
3_Hgrbsch6_90RdCQQw4kw,Thai Street Market,103,4.5,44.99115,-93.10608,$$,55117
T4q-McFSoqvKGNnbtdVLew,Sakura Restaurant & Sushi Bar,253,3.5,44.94454,-93.09486,$$,55102
bDIUhf2LOzN1f3waZQF-PA,Waldmann Brewery,132,4.5,44.93833,-93.10949,$$,55102
6AG_6MQ6RjE-sHf-SBsT1Q,Downtowner Woodfire Grill,256,4.0,44.94307,-93.10515,$$,55102
7k4ZFYJ4ysGfVQIHP_7PjQ,"ESB, East Side Bar",22,4.5,44.96713,-93.07342,,55130
8M3-Gq9iyHf2aaWzj73_BA,Thai Café,124,4.5,44.9559,-93.11566,$,55103
llMGu11uTm08hnIEHucOVg,Mancini's Char House,270,4.0,44.9367,-93.11376,$$$,55102
M2vzWfvLybCTGblpp8t9RQ,"Kincaid's Fish, Chop & Steakhouse",221,3.5,44.94561,-93.09583,$$$,55102
q5rzgLpigjDS9l_4f0d6Iw,Porterhouse Steaks & Seafood,161,4.5,45.02365,-93.09123,$$$,55117
0JS7i1g5nKe4pDEfO4ZN0w,Grand Ole Creamery & Grand Pizzeria,293,4.0,44.93982,-93.13191,$,55105
AT905zXT1qthD9cPkFISdg,La Grolla,342,3.5,44.94643,-93.11929,$$,55102
MRh_8puyQXQ_jue4udCzYA,Conny's Creamy Cone,87,4.5,44.97716,-93.12664,$,55117
zIAbWjGgLlir7cR2ttDiJA,Keys Cafe & Bakery,146,3.5,44.95113,-93.09421,$$,55101
BOrgrG3qN6ZTKtmhoJsHig,Beirut Restaurant,193,4.5,44.90428,-93.08113,$$,55118
S8Edo9nqRZBMwfm7MWZOcg,Boca Chica Restaurant,224,3.5,44.93375,-93.08359,$$,55107
DmHVcwnIM5gzrO9-mYnX8A,The Uptowner Café On Grand,285,4.0,44.93982,-93.14684,$$,55105
PTYPbMucZ7CQfCkgmTEFvA,Tono Pizzeria + Cheesesteaks,124,4.5,45.03459,-93.01713,$$,55109
Xpch4JmLQl7R1z0KOranjA,Treats,152,4.5,44.93963,-93.13267,$,55105
-kAiAAvrwbo8XAzmUdg3bw,Los Ocampo Restaurant & Bar,150,3.5,44.95037,-93.02621,$$,55106
5aiJhs_lp17vXSzk79vrAw,Basil Cafe Thai Cuisine,85,4.5,44.95602,-93.12498,$$,55103
kEJSXIRzr8KQ407iQtrtwA,5-8 Tavern & Grill,156,3.5,44.96335,-93.00354,$$,55119
LwY--KqZXmzxE2-jeVK39Q,Ho Ho Gourmet,108,3.5,44.95261,-93.01633,$$,55119
0WIQUf2VJK4i8FJABv6Peg,Homi Mexican,195,4.0,44.9555,-93.13684,$,55104
O4yEjYthfXX2ln7rPS14Gg,Indian Masala,147,4.0,44.94206,-92.98492,$$,55119
JnIlx6053Zzd0_IlJwvHww,Friends Cafe,95,4.0,44.9925,-93.10589,$,55113
wdgu6v5d9JCStV4jSrQnAQ,Demera,70,4.5,44.95605,-93.13484,$$,55104
jUuaav4GIeC4zd3U5Wcoew,Little Szechuan Hot Pot,244,3.5,44.95527,-93.11756,$$,55103
dQLZ1yutkYdVT80w9T99nw,Ngon Vietnamese Bistro,300,3.5,44.95597,-93.13382,$$,55104
iEfcvzGg0EaYJ3G0kIRu5w,Zamboni's Pizza,110,4.0,44.94409,-93.10283,$$,55102
VkZt3ddA0NV4EtmvvuHzvA,El Cubano,62,4.5,44.91979,-93.09577,$$,55118
SdLdgtF7nCpvHkXcwsHYpQ,Maverick's Real Roast Beef,254,4.0,44.99409,-93.14633,$,55113
E7Tpi6NmT6bcIRxePjuekA,Dar's Double Scoop,35,5.0,44.97273,-93.10557,$,55117
o7S8Shzt2Bu-LHBVrkFaGQ,La Tapatia,103,4.5,45.02319,-93.16517,$,55113
zKzuiHnqi1C7kGaYs8zHNg,Krungthep Thai,50,4.5,44.97546,-93.1063,$$,55117
KbC419aOQ-fE3sdVHvTDsQ,Pappy's,63,3.5,44.97777,-93.02502,$,55119
w6s7oKGHCCDNzSbAjw6FjA,Peking Garden,199,3.5,44.95548,-93.11658,$$,55103
rQq7u7P1Xc30oAM-oF628A,Bullvino's Churrascaria,39,4.5,44.95011,-93.08558,$$$,55101
n3K6-RstNGN6TEVIspDU0A,Shamrocks Grill and Pub,282,4.0,44.92728,-93.12788,$$,55102
SgUgN9j7O5XSOgtbudSs_Q,La Cabana,31,4.0,44.96288,-93.06447,$$,55106
mjJJqyDUVlC04wV_I59V3g,Tokyo Sushi,137,4.0,45.02869,-93.01967,$$,55109
Fmgw3vbYkCTvJAyS5rlEpw,Mango Thai,208,3.5,44.94648,-93.12579,$$,55102
iWTk-06tyKTi-lVBT6JPqw,Taco Libre,177,4.0,44.90909,-93.08116,$,55118
t8UraEE73uvCAvj3XVE63Q,By More Taqueria,23,4.5,44.96744,-93.07307,$,55130
n8DS5Aif6HQMN85KxYtT-A,Tavern On Grand,171,4.0,44.93978,-93.12762,$$,55105
0GbroApG8-RljcOCHE2ztA,Punch Neapolitan Pizza - Grand Ave,201,4.0,44.94026,-93.13251,$$,55105
cSsId315azZRDLNoH2du1Q,Louis Ristorante & Bar,198,3.5,44.94384,-93.10404,$$,55102
7b-Qkf3LBN9i92xUJrsHPQ,Ishita Ramen,147,4.0,44.95552,-93.1304,$$,55104
cFlg862anPktKoLlZgilQQ,Bangkok Thai Deli,195,3.5,44.95619,-93.11394,$$,55103
7HrfGyft_JG8nUPAxPJ2Fw,Santi's,7,5.0,44.97194,-93.04526,,55106
C4phUysRq91MNx2W_5HBZw,Amore Coffee,86,4.0,44.91951,-93.10207,$,55118
c4XwUBp1hjINYHBvlg7Xeg,Patrick McGovern's Pub & Restaurant,181,3.5,44.94345,-93.10467,$$,55102
ag1ZDJkavderPldXjNc3Sw,St Paul Bagelry,141,4.0,44.99266,-93.14628,$,55113
QYBe3hAxUNeVZ2gt6P51Ag,Burger Moe's,261,3.5,44.94264,-93.10465,$$,55102
VVBzLiMPpUuT8sVCKmymng,Ai Hues Bakery & Deli,104,4.0,44.95547,-93.11822,$,55103
YmxWwNkXrerJEujVYGqYgQ,Pho Ca Dao,146,4.0,44.95598,-93.11846,$,55103
2GKLUlkplC1sYMhAjcF6zw,Tay Ho,108,4.0,44.95547,-93.11263,$,55103
eVmVkr4EaoD0T0DldsQl7g,Manila Sizzling Wok And Grill,43,4.5,44.95544,-93.13041,$,55104
gI1mKGdIYS1vPka8Uq6kkw,Amsterdam Bar & Hall,172,3.5,44.94612,-93.0956,$$,55102
cidQf061Zhk3kNr7f_LSWQ,Louisiana Cafe,168,3.5,44.9468,-93.12592,$$,55102
xZumqcqTD00_AdPIM05mzQ,Red's Savoy Pizza,35,4.0,44.95709,-93.02497,$$,55106
JCvFDlpPOGvYI_HQVsgcaw,Saji-Ya,167,3.5,44.94024,-93.12933,$$,55105
AMuLZgZCWHZmjtILfWqaww,Skinners Pub & Eatery,108,4.5,44.92714,-93.1387,$,55102
OWbRO-kjkmE9JhaQZRo8_w,Pizza Lucé St Paul,250,4.0,44.94675,-93.15022,$$,55104
YTp4RpL-gYcN3k3a4iQFcg,Pasticceria,40,4.5,44.94383,-93.10405,$$,55102
LFSXQ0vuAVRaAfCVEowR4Q,Sui Yep Cafe,32,4.0,44.97169,-93.07318,$,55101
PG3fwBP4a6NaIZdQIZqdAw,La Delicious Bread,47,4.5,45.00598,-93.10532,,55113
gHWYPzWU3qqHnhymN5WSNA,Catrinas Cerveza & Mexican Grill,50,4.5,44.93969,-93.08933,,55107
JWoocJK9p5bMTkEfQDduZg,QC Pizza - Mahtomedi,106,4.5,45.03728,-92.9839,,55115
hFM5LNdREEc1mnRHAIx4gg,Far East Bar & Restaurant,37,3.5,44.97011,-93.06626,$$,55106
krErlkol6KQZLsy5AEwTNg,Ox Cart Arcade & Rooftop,201,3.0,44.95052,-93.0869,$$,55101
A9YP9LyvMsaSWGDN4rAHBQ,Coconut Thai - Saint Paul,44,5.0,44.93978,-93.13035,$$,55105
BJxIph72cemZ3krLBuiLMQ,The Cherry Pit,72,3.5,44.96335,-93.02567,$,55106
5S6yz3rFfTk9XRQGigzi-Q,India House,217,4.0,44.93963,-93.13213,$$,55105
E2U5v6rzxrzcMjHFKtf8Ew,Casa Azul Agave Mexican Restaurant,32,4.5,44.9917,-93.09021,$$,55117
xS7xWWyuanIU40mSuSY4iQ,Bon Vie Bistro,129,4.0,44.94676,-93.12059,$$,55102
iYcA4HdHZkKnr5qwBna33Q,Sawatdee Saint Paul,242,3.0,44.95073,-93.09376,$$,55101
2673loMTTj_7rjfC7yNXEw,La Fusion  Cafe,23,5.0,44.9421,-93.10633,,55102
ZV27QGqcuBe-YMT3-3CgPw,Kolap Restaurant,35,4.5,44.95948,-93.12651,$,55103
qluUSZekiKcwXOJs6TZbMQ,Golden Thyme Coffee & Cafe,55,4.5,44.94643,-93.13976,$,55104
lAMR4Ir1-ws4HVtPBugSfQ,Gastrotruck,42,4.0,44.97903,-93.26493,$,55101
1cEHumrSl5Rq5G2CH2_5fw,Checkerboard Pizza of Eastside,39,3.5,44.97139,-93.06555,$$,55106
ScYqCaHwqrBkTahSo2E6tQ,East Side Pizzeria,28,4.0,44.97269,-93.07311,$,55130
LvhKzTUzB9xfFUOljPAkGA,Sweeney's Saloon,177,3.5,44.94423,-93.12598,$$,55102
fTpaepRwluvQGHyg7g4nYA,Iron Ranger,108,4.5,44.94031,-93.14586,$$,55105
juwr8salfdgdykZa_XJI9Q,Potter's Pasties & Pies Truck,38,4.0,44.95147,-93.09037,$,55101
oQ4e6v-T4LIKFRUL6EUnkA,The Lexington,257,3.5,44.93968,-93.14626,$$$,55105
r_JevbpVIJwA4J7qrcO-2A,The Tavern Grill,325,3.5,44.93706,-92.95647,$$,55125
ad1hRCMKs94Wox6y0r9XQA,Day By Day Cafe,146,3.5,44.93806,-93.11178,$$,55102
nCwVVXWLETV8QZ3ulaaNRg,The Commodore Bar & Restaurant,139,3.5,44.94369,-93.11657,$$$,55102
BJT5N2bX25DCdHRis9uaBw,Icy Cup,18,5.0,44.92987,-93.08778,$,55107
lmGb2Rs2N3q6qjW0CdydnA,Salut Bar Americain,305,3.5,44.94038,-93.13823,$$,55145
vBIwN9oLE8ZLA8sYj0pMYw,Skyva Deli,18,5.0,44.9468,-93.09284,$,55101
RoJKyCuYdotltTDP_2nRAA,Wild Orchid,101,4.0,44.96241,-92.98532,$,55119
baSmzyZmRBXY2rCD6ZmhFg,The Woodbury Cafe,221,3.5,44.93715,-92.95242,$$,55125
eYxcoU1LjlSlzYxUNbwxfQ,Thirty-Six Cafe,79,4.5,44.94023,-93.14016,$$,55105
SZiHO0xkm_58Z4tWAaLUOQ,Smoke Session BBQ,12,5.0,44.98904,-93.02462,,55109
nZ19cy0m6sHdogqedX2LeQ,I Nonni,149,4.0,44.90017,-93.13923,$$$,55118
YY4cdpzkkCZzanAwyZEyLw,Ronnally's Pizza & Pasta,103,4.0,44.92609,-92.96602,$$,55125
2ojnUvdmuqWW5EuH3Xew5g,Hyacinth,68,4.5,44.93979,-93.13328,,55105
OYr1WkdIw3mLfRNrKPOrkg,Boca Chica Taco House,90,3.5,44.93368,-93.08466,$,55107
xnR-pqpt_7tnQX4VIEd9YA,Rooster's BBQ Deli,125,4.0,44.92715,-93.14135,$$,55102
SR6ui4P4qtPZq2DGid03uA,Pinos Pizzeria,20,4.5,44.94718,-93.09291,$,55101
jbyzf39aVzGqH1K77g1t6Q,Carbone's Pizzeria,23,4.0,44.95798,-93.07342,$$,55106
XZVOvW-Su7sjPyg42z4vsw,Burger Dive,42,4.5,44.92708,-93.13084,,55102
ocHPAIQwsdA3Z6X6r99fcA,Best Steak House,66,4.0,44.95539,-93.13668,$$,55104
N8bpj9kTk3TnAitI2OiMYQ,John's Pizza Cafe,102,4.0,44.96979,-93.12591,$$,55103
kLjjuZ_pVxzw3OGWv1WwrQ,La Costa Mexican Sports Bar & Grill,82,4.0,44.92924,-93.07741,$$,55107
vscPP0RXj152ptWVecAPBw,Tiki Tim's,21,4.5,44.9525,-93.10591,$,55102
JtOpBqAJGqJuRczswgR3Zw,Maison Darras,25,4.5,44.94835,-93.0926,$,55101
zZai9miFhtlvfqfBeGrueQ,Pollo Campero,94,4.0,44.89879,-93.08018,$,55118
1fEU6CtQbEZduAhewAwhmA,Leo's Chow Mein,36,3.5,44.95236,-93.05598,$,55106
ylLAeG4XiprTDafyhUwoWg,The Flameburger,91,4.0,45.01769,-93.10536,$,55113
U1pWiYAu_vmBJhMnbh7wQw,2 Scoops Ice Cream Eatery,28,5.0,44.94679,-93.13919,,55104
MBJvr2tt0YsykW3AwaVvKg,A-Side Public House,54,4.5,44.92657,-93.13168,$$,55102
UWmuSlobHKFXCrZ3pLarNQ,Wong's Kitchen,21,3.5,44.97727,-93.05604,$,55106
6nou1p-XintnDbNKIbX36A,Pillbox Tavern,38,4.0,44.94719,-93.09496,$$,55102
xuhjM3j1JA4NIboxApFLNg,Karen Thai food,33,4.0,44.99122,-93.08783,,55117
TtKdmQDiU9TEdrqFVwYreQ,Fruti Landia,13,4.0,44.97095,-93.07308,,55130
Bi9FEfB-RDS4eYF8vJzHkA,Gopher Bar,92,3.0,44.95114,-93.08859,$,55101
rTeAn_dLwu33eKP7gZxvjw,Herbie's On The Park,97,3.5,44.94387,-93.09818,$$,55102
P7aBgbJgzNTWJj7_3H64Tw,Urban Wok,73,3.5,44.9482,-93.08718,,55101
hD3d1ceal0v4dcaqrE-SOA,Yellowbird Coffee Bar,41,4.5,44.94652,-93.14963,$,55104
QOnUakl25z7iedEzfQcQvQ,Hoa Bien Vietnamese Restaurant,112,4.0,44.95603,-93.14748,$,55104
VnnI2BStEUsTS6OSntag7Q,Machete Cocina Mexicana,111,4.0,44.93715,-92.95242,,55125
hCeGCeJbTjiW2LAPnqn_-Q,Carnitas Don Tachos,8,5.0,44.97721,-93.07369,,55130
pkt5NftrEeNQSLK9MU8uFA,Saint Paul Saloon,18,4.0,44.95229,-93.05639,$,55106
y01837te1xx-T25hWiQMPA,Randy's  Pizza Salute,69,4.0,45.02149,-92.98433,$$,55128
xaUAOzBomj8eDy74hTvQpA,Ming's Garden,47,3.5,44.98777,-93.0251,$$,55106
DeXwsNLNrBNR_76_9fvcWQ,Skyway Grill,26,4.0,44.9468,-93.09284,$,55101
keABmVwgl9u1AO91XhLGYA,Yumi Sushi Bar,54,4.0,44.94621,-93.11743,,55102
mxzoF3AUzq1j4ga3rdMs1A,Alary's Bar,78,3.0,44.95018,-93.09256,$,55101
qL7pPz-g909YmKtUAqS2Tw,Taste of India,69,3.5,45.011,-93.02696,$$,55109
ojzjqzJHZtPx3T9pIPsHrw,Joseph's Grill,74,3.5,44.93881,-93.0878,$$,55107
H06xMdb1GekakC5tLk26pg,Rival House,114,3.0,44.9479,-93.09332,$$,55101
bGeEnbyMbWtycj1R9cjMQg,Seventh Street Truck Park,71,3.5,44.94358,-93.10351,$$,55102
4BRRU3jhaC96LBHK3d3wpw,Crooked Pint Ale House & Event Center,90,3.0,44.99337,-93.09088,$$,55117
e46a6wJzl3ZrO0SnyO2FYA,Phi Chay Thai Cuisine,36,4.5,44.9275,-93.12744,,55102
fsvtPVbz9D3NQybSxysWwA,Cravings Wine Bar & Grille,167,3.5,44.9381,-92.95358,$$,55125
sx7QrigUO-EYQD9Af52vIQ,Dairy Queen,7,4.5,44.95831,-93.05601,$,55106
LrifyD2LcEGdWlbnKzdu_A,The Original Malt Shop,138,3.5,44.99273,-93.1475,$,55113
xre9CEGBNBGTXfqtYILWbg,El Sombrero,85,4.0,45.0286,-93.10391,$$,55113
2cIBtiIKUzJXN78EGQxt-Q,Andiamo,49,4.5,44.92518,-92.97364,,55125
2MhFpWYCJJ3cUtsyYC-K-w,Wilebski's Blues Saloon,12,5.0,44.99057,-93.10543,$,55117
T4o6YMgPnUudqyHeRN09Dg,Destiny Cafe 2,94,2.0,44.97613,-93.04348,$$,55106
RzhlVTvcxhHozEhaN8h5BA,Golden Chow Mein,67,4.0,44.92527,-93.13058,$,55102
bjAhSves1RbdMno9c6TrOQ,Great Dragon Chinese Resturant,30,3.5,44.96796,-93.06615,$,55106
V5V3Luj9uHQkJvFPi52_XQ,Great Harvest Bread Company,40,4.0,44.94624,-93.1227,$,55102
QuAGJA_DApd-BHfdPZR9PA,Duck Donuts,94,4.0,44.92485,-92.95518,$,55125
luWvswxBX0GxHkX5oKj-Qg,Crisp & Green,43,4.5,44.94012,-93.14113,$$,55105
f0zMQfHtPglmWa4lG-4SUw,Bennett's Chop & Railhouse,146,3.5,44.92197,-93.13557,$$,55102
O_dUHI_vl2n_ZiOPI6xeFA,New Bohemia - St. Paul,54,3.5,44.94336,-93.10372,$$,55102
u3-Owej3KdkVS0-eVhFqog,Shawarmin Grill,20,4.0,44.9526,-93.01131,,55119
2HL89VWrTzOWrzXpqwYcJw,Akita Sushi & Hibachi,245,3.0,44.93732,-92.9534,$$,55125
dlRST827Z8JA-ndVZxtEHg,Taste of Scandinavia Bakery & Cafe,67,4.0,45.0286,-93.10391,$,55113
I1JrOfn2BoD-syjkUb3pMw,Taco N Madre Taqueria Y Cevicheria,19,4.5,44.93162,-93.08793,,55107
RhC2vMX5_ko5Z-NT0AUD4w,Mai's Papaya,4,5.0,44.97194,-93.04526,,55106
dxjy68QN5MfOSkw2QON3bQ,Mississippi Market,42,4.5,44.91832,-93.13992,$$,55102
7thdDV68uMJjdiFcotscCQ,Tin Cup's,52,3.5,44.97807,-93.10571,$,55117
pgoDWKMxdHKPKD0auFloog,Blueprint Burgers and Melts,36,4.5,45.03181,-93.02261,,55109
K6Ftj_ZLo8imnvGQJ5uCAQ,Pho # 1,40,3.5,44.94972,-93.09994,$$,55102
JPstIDkqg2f3mnawlhOYrA,Capital View Cafe,84,3.5,44.92679,-93.1021,$,55107
bJuIAG43mUFu04miMTE-pg,Thai Pepper,40,4.5,44.90673,-93.08103,,55118
oa3uOhy_7MLGrJLSj8ra4g,Ali Baba's King of Gyros,62,4.0,44.90798,-93.08023,$,55118
Vif0N6lVzxMwKmbLOsJQGQ,McCarron's Pub & Grill,44,4.0,45.00058,-93.10579,$,55113
N_1-SzMgjvzBMVK94bP1Mg,Tokyo 23 Buffet,185,3.5,44.90985,-93.08402,$$,55118
k5jVY7Fz3H9u6KRrXXAEcw,Tom Reid's Hockey City Pub,98,3.0,44.94246,-93.1047,$$,55102
dLV8_NnKspBk3auaPyaIrg,Rocco's Pizza - West Saint Paul,25,4.5,44.91951,-93.09012,$,55118
C1-mbl2FAaj6BEFB2fvnKQ,Bambu,120,3.5,45.02866,-93.02974,$$,55109
E5paAVwI0qRymXkaoS_8Jg,Yang's Chinese Restaurant,155,3.5,44.92634,-92.96575,$$,55125
sFLyQsIAE3MGqoDM29d74g,Foodsmith,22,4.5,44.91687,-93.10217,,55118
I4CO_ubCht66uRJS4x1-YA,Angelo's Pizza,23,4.0,44.9916,-93.02459,$$,55106
uRIM3EhbYQtytrDCegTDEg,Hearthside Pizza,47,3.5,44.99081,-93.10652,$,55117
G7Xh5b91Qk3PuFKPsUa58g,Red River Kitchen at City House,28,4.0,44.93785,-93.10229,$$,55102
EauEuSN5CbtP4pj8Vjeudw,Rusty Taco,181,3.0,44.92636,-93.14656,$,55105
ZYFqOxjsWXKngUqcruj_Fw,Fork In The Road,16,4.5,44.95126,-93.09107,$,55101
SEgofwOCspP8mEyEZitYRg,Palace's Pizza,16,3.5,44.97807,-93.04251,$,55106
ZSbQXnGYAcxTTNY76C9N0w,Hickory Hut,71,3.5,44.95605,-93.12748,$$,55104
90xZKO5MojgbJ_Zucltd9Q,Supermercado la Palma,23,3.5,44.9612,-93.07668,$,55130
o_QPi619xO0bBQXzlis3-A,Tori,25,4.0,44.93542,-93.11578,,55102
fB6qQ3G5wiPw-7PTgLVjiQ,Eagle Street Grille,125,3.0,44.94408,-93.10272,$$,55102
QVd-d0L0Q85kuI0lZDEFrA,Shar'els Cafe,43,4.0,45.02149,-92.98434,$,55128
N-oJrNhOVLybIWlJUT6Zyw,Greek Kitchen Food,12,4.5,44.94753,-93.09185,,55101
P52xLjRyCDcSYZ3zSpbd3Q,The Pizza Shop,26,4.5,44.91502,-93.10374,$$,55118
y_bAWT8wyJA4HPNNHifMjg,Keys Cafe & Bakery,159,3.0,44.99227,-93.14562,$$,55113
NyYD_tRvTfsv1-vxBrU66A,Cora's Best Chicken Wings,22,3.0,44.97586,-93.07388,$,55101
A1amkZQwo2BP2HwcT9YEyw,Joe and Stan's Sports Lounge & Grill,47,4.0,44.92812,-93.12668,$,55102
saeAuR4Kbvy4vONwMJRT3w,The Luscious Crab,15,4.5,44.95595,-93.1214,,55103
FTDwIDxQ9J0_XQVhJ3b-Og,China Chef,39,4.0,45.01089,-93.00605,$,55109
SMoB6ALX_MBBSi-VavXWmw,red river kitchen,21,4.0,44.93904,-93.09981,$$,55102
xylyyiH0MOZoQmC--5BYGA,Jersey Mike's Subs,35,4.0,44.92493,-92.95514,$,55125
ZXj9ijeJmcUHFxeE7Erpeg,Asian Express 2,12,4.0,44.94895,-93.08981,$,55101
2kOnNc04Vm6kCdX_XR92Og,House of Wong,100,3.0,44.99209,-93.14904,$$,55113
jOPxl2xaX3flT2nXwuQGSQ,Great Moon Buffet,78,3.5,45.02989,-93.01708,$$,55109
FAIfOGhrfmga1iGKbduPRQ,52 Market & Trading,9,3.5,44.97099,-93.0657,,55106
rxpZna7c6K4S2VRTEqACYA,New Asia Express,110,3.0,44.95538,-93.14641,$,55104
FzfjJu5AggoAEhfCZnPfvA,Green Mill Restaurant & Bar,76,3.0,44.94662,-92.984,$$,55125
IYM4zv8t_-qXanMl-WVuQg,Taihoa BBQ,24,4.0,44.95539,-93.13614,$$,55104
CJCZFL1uUUqrQuuSYulw7A,Taqueria El Buen Gusto,14,3.0,44.97763,-93.0658,,55106
oL-vFqZAAYx9mWy4cUGLKg,Hy-Vee Market Grille,56,3.0,44.96345,-92.96102,$$,55128
bGrriGpG8Pxs-yheR-bkzA,City House,14,4.0,44.93902,-93.09977,,55102
eHBfX7tUIqb-AH2Wx4y7IA,Morelos,54,3.5,44.91591,-93.10034,$$,55118
vc621d4ni2PYNqELu7zHXg,Burger Time,39,3.5,44.91579,-93.08109,$,55118
Na5STTris2OK6ZmNgSiDgg,Karen Marketplace & Restaurant,3,5.0,44.98268,-93.06645,,55106
THE3IXeLW2l2Md8LbMliJw,Gabe's Neighborhood Bar & Kitchen,123,3.0,44.97073,-93.14695,$$,55103
9wpJY1wi5YkKb6DFrIoURg,Cora's Best Chicken Wings,28,3.5,44.93086,-93.08004,$,55107
rtvoamuCBpDErqezBltZcg,Asian Invasion Food Truck,13,4.0,44.9537,-93.08996,$,55101
5rHnfi7OnThgms8ygksp9Q,Las Islas,13,4.5,44.90099,-93.04099,,55075
n7eVGGpIbCHgpI3qbKHfdg,The Fireside Lounge Bar & Restaurant,48,3.5,44.90716,-93.08024,$,55118
DpgwsHciX6GBQ8LLtkAK_A,Firehouse Subs,49,3.0,45.01061,-93.0236,$$,55109
KO9kn_pZ-ooOIF3sIV5qUQ,Ho Fan,21,3.5,44.9483,-93.09404,$,55101
w_BorQBjTLKc3VXXTSzvRg,Osaka Sushi & Hibachi,87,3.0,45.03503,-93.02147,$$,55109
IkhXG3ZhaebkIlnAo6f58Q,Burnt Chicken Cafe,3,5.0,44.97515,-93.07321,,55130
KT4Is4077wKcpc71AOqeNQ,Hunter Boy's BBQ,11,4.0,44.97278,-93.10571,,55117
Inhq1f1ElhoHAOTE-4uR7A,Jr Mac's,34,4.0,44.91985,-93.13798,$,55102
pb_X5mIz2ccgosxg4CLYzQ,Little Asia Cafe,54,3.5,44.95605,-93.14248,$,55104
xaTvYEfaFcATNGe6Ln3o5w,Jade 88 Chinese Cuisine,25,3.5,44.96538,-92.98389,$$,55128
I7RgCAuaJAk1fRkAokhF9Q,St. Paul Tap,55,3.5,44.93092,-93.13479,$$,55102
E0er6ZQtJcW0hA-gpDPcqw,El Taquito Taco Shop,56,3.5,44.90283,-93.07997,$,55118
CD_HZVXIxvwc55ZotVE2kg,Wokery,4,5.0,44.95302,-93.02643,,55106
WAmgPlpjg10GkZuQwZPp7g,Billy's On Grand,122,2.5,44.94027,-93.13595,$$,55105
KAjPaNGsYLIzvRbRH2M9MQ,Freshii,10,4.0,44.94814,-93.0941,,55101
svx1_i6LfOI_xcbDzkQTIg,China One,28,3.5,44.95552,-93.1304,$,55104
HLGYlFy9zfdug7IO-EFOfQ,House of Halva,15,4.5,44.92863,-93.12503,,55102
-ub4Ci_evLokH-QTmvJB-w,Kabomelette,22,4.0,44.98512,-93.27123,$,55401
uLEAVCVp9WDFBmK2WBKoAw,Mango's Restaurant,8,3.5,44.96915,-93.07359,$$,55130
9M5u_aalVpzz4x9MJ9EG9Q,El Guanaco Bakery & Café,6,4.0,44.96255,-93.06487,$,55106
qZLqjuKyvkRR274Whwy7Xg,Her Kitchen,2,5.0,44.97194,-93.04526,,55106
IAjMd7Zm8MsAqIey661XCA,El Pollo Felix,5,4.5,44.96799,-93.01989,,55119
WlrcUAVGaXDTMd8XOslmyA,Golden Grill,21,3.5,44.97714,-93.1191,,55117
_Tmicl4v0GBJlx4CyooW6w,Tii Cup,11,4.5,44.91018,-93.08115,,55118
1G0XD5P0EKIGn3vTTL71Tg,Black Market StP,12,4.5,44.93037,-93.10221,,55107
nwsmWAEwJIqU3MWhZ-HwXw,YO! Pizza & Fries,6,5.0,45.01741,-93.10544,,55113
8fdYv_4nUerAQx-AWg2y1A,Blue Fire Pizza Truck,14,3.5,44.95147,-93.09037,,55101
KMDX2nDX4U3di87SPEzkuA,Chick N' Chips,8,4.0,44.9701,-93.10558,$,55117
9plroYXGxMOvzq89mQfgfA,Little Venetian,54,3.0,45.0286,-93.10391,$$,55113
h4j0NWg85rtd1sjXv1_EJA,Hunan Garden Chinese Restaurant,34,3.0,44.94701,-93.09374,$,55101
MxUumDpbyTPjYqpYKPfeeQ,Ifoods Deli,3,4.5,44.98735,-93.02533,,55106
bqZZpAdPxLpz1KVXvPnKrA,Rio Brazilian Steak House,32,3.5,44.92512,-92.95776,,55125
bR2P7NsHO_ejV2dBaOt0ug,Mama Ann's Soul Food,10,3.5,44.95708,-93.10553,,55103
2Zieg79mSClT8n4UIClppw,Nepali Kitchen,3,5.0,44.99236,-93.10429,,55117
sttJ8GDC1W5vYp4EcIqGZQ,Fortune House,39,2.5,45.0286,-93.10391,$,55117
PXJ9dmmfWcFV2xAR3hHugQ,Michael's Pizza,26,2.5,44.93264,-93.08126,$,55107
Oi448x8PWE8N78AmFqTd_w,iPierogi,9,4.5,44.94768,-93.29538,,55408
-JFx7nTBVwSa3qYa5Ekgyg,City View Grille,5,4.5,44.94922,-93.11147,$$,55102
Df-h30A-DOoWaCF8qrehfQ,R A MacSammy's Truck,9,3.0,44.9537,-93.08996,$,55102
_aK-_28ZrRleS7uB8hBYpA,ROK Eatery,5,4.5,44.92946,-93.1237,,55102
sEpL11489g3N8WwYdwIjWw,Pimento Jamaican Kitchen,23,3.5,44.92854,-93.12522,,55102
101DV5af2myCvpR9AcCnGg,Twin Cities Burger Battle,5,4.0,44.93769,-93.09736,$$$,55107
WBQ8MrbiaUIyIcx_V5qhLA,Leeann Chin,14,2.5,44.95155,-93.01049,,55119
_Yuv3jhvQBXPtWXPtIGurA,Francis,6,5.0,45.00299,-93.24242,,55413
q1F5tjL5DM7JGrm5HzCsFQ,Redd Peppers Jamacain Food,4,4.5,44.97054,-93.10612,,55117
slzwlbo9J1J_tvN0w9vbLw,Panera Bread,37,3.0,45.03027,-93.01865,$,55109
6l77nzN0jEToBltGkH17Nw,Rico's Ice Cream Parlor,2,5.0,44.94655,-93.09435,,55101
JusP3wrsBftOydLurtXoPA,Dock & Paddle,10,4.0,44.98227,-93.14315,,55103
6ZhI1aRX9W6Os9rgmim4Qw,Papa Murphy's,6,3.5,45.01061,-93.0236,$$,55109
iQWis6oNcnFgMbwvcqGlxQ,JW's Bierstube,33,2.5,44.96304,-92.96257,$$,55128
CIMpoWKFVtn6k_nvVGr5fQ,Panini Pinups,7,3.5,44.92868,-93.08413,$,55107
Bp6Fz9wqPh2jx1gMOu1YJA,Panda Express,33,3.0,44.92527,-92.95509,$$,55125
gI5OFilVdOjKOpOWege3Ug,Rocco's Pizza - Oakdale,10,3.5,44.97688,-92.9841,,55128
r2DJU9U5pdZMs7XH_SK_9g,Santa Fe,2,4.0,44.97453,-93.07386,,55130
462HmbAHUW2Zxufgv1p8fA,Knowlan's Fresh Foods,6,3.5,44.97458,-92.98536,$$$,55119
m-dtVSTFlaqR2LKaztVRNQ,Headwaters Cafe,6,4.0,44.94372,-93.09965,$$,55102
m6YjwHx1lLMqDdMbXVeA5Q,East River Eats,1,5.0,44.9525,-93.05623,,55106
ouQH743ksUSqm8snTQ_J1g,Twin Cities Crepes & Waffles,1,5.0,44.97095,-93.07308,,55130
coH6Aseo0L3-81Gj93TtiA,Green & Grill Global Taste,6,3.5,44.94769,-93.09846,,55102
HT2wROCZx7fBlb4l9w3pqA,Bella Ciao Pasta and Bar Ristorante,5,5.0,45.03736,-92.98418,,55110
-2G4K9r1vKJY9S9vqJOoTQ,Jimmy John's,20,2.0,44.95251,-93.01041,$,55106
6l6GFy0OFoRpUnWTjve1CA,Happy Street Foods,3,4.0,44.95126,-93.09107,,55101
qMVHfcVzCVKfW9RDaSM9ew,Red's Savoy Pizza,12,4.0,45.02303,-93.14849,,55113
KMYWli9NFDnPaW339aRAJg,Deep Roots Concessions,2,4.5,44.95126,-93.09107,,55101
vokiXSPRGCsqYkkghXD-UA,VB & J’s,6,4.5,44.87549,-93.14679,,55120
yvcqa5O2yJNROAJ5quwhFQ,Rocco's Pizza - Little Canada,32,2.5,45.02342,-93.09364,$$,55117
-OO0S9RvCaOm8SvJHqK5og,Dairy Queen,7,3.5,44.99371,-93.10629,$,55113
W-pdzSripKP4CENv6iD_BQ,Kong’s Kitchen,2,4.0,44.97445,-93.06584,,55106
SQ5gBaa_Zskf5NOp3GtysA,Dairy Queen,2,4.0,44.9876,-93.02548,$,55106
EyD1yPLUpaSKfkx2lUGwLg,Roddy's Bar & Grill,4,4.5,45.01243,-92.99268,,55109
mCU56Kg437jxUmv0J5TIaw,Orient Chinese Restaurant,7,3.0,44.94799,-93.09275,,55101
V1wS0gvJtUayI682ltbW_A,The Coop,85,4.0,44.88899,-93.03714,$,55075
CY1w007-lA_1bGhqkWpSGA,Hamburguesas El Gordo,128,4.0,44.89396,-93.08118,$$,55118
fssnKE15ORB1ontUrA85Xg,Tamarack Tap Room,426,3.5,44.94033,-92.93496,$$,55125
ah8rgcU1934bAQgVRS5Y-Q,Ramen Station,162,4.0,44.92043,-92.93205,$$,55125
sg03gcGl-cQdm0pb4PhZrg,Keys Cafe-Woodbury,121,3.5,44.92518,-92.97364,$$,55125
IbyihNnWhTcgbOmk8nWRAg,India Palace,149,4.0,44.94322,-92.9353,$$,55125
RFdq5KRo4zMtWHPV0pMDsQ,Corner Cafe,24,4.0,44.99228,-93.00559,$,55109
s89_05aN7NUL70o_AgjBZQ,Cal's Pizza Factory,19,4.5,45.00622,-92.98539,$$,55109
yEVpo5MvmkDQgaHjEahBMw,Neumanns Bar,39,3.5,45.01196,-92.99293,$,55109
dwPwd5rIM33_vjRQXmqj5A,MN Sweet Comforts,5,5.0,44.96347,-93.00472,,55119
1qVOiuSGnldYG82YHq4S-w,Casper's and Runyon's Nook,977,4.5,44.92655,-93.15671,$$,55116
G7iXpVSRuXzCbD2daJ_JYQ,Surly Brewing,1170,4.0,44.97323,-93.20977,$$,55414
34q1Hfuh6QqLP-BPuxN_mA,The Naughty Greek,439,4.5,44.9468,-93.16731,$$,55104
ziwhTIngHPlIeKVZRoWG6w,Groundswell,251,4.0,44.95918,-93.15708,$,55104
61XtCmM0b5Kg01yeeewBPg,Nelson Cheese & Deli,147,4.5,44.97701,-93.16626,$,55108
oiV59HR1Js_-rfIN8UWtUw,On's Thai Kitchen,512,4.0,44.95585,-93.16839,$$,55104
mpiFVbqHqkNd0fBfBxCJ7g,Black Sea Restaurant,237,4.5,44.96346,-93.16726,$,55104
hzz4N1s4K13jf3pTaz99SA,Master Noodle,229,4.0,44.95593,-93.15643,$$,55104
RiDwchhDVVljEsFVu6dU2Q,Everest on Grand,326,4.0,44.93991,-93.15403,$$,55105
kSMAla_GDvjYmVqMZEPuTw,Bolé Ethiopian Cuisine,82,4.5,44.98176,-93.16205,$$,55108
JCPGIbiEtHuxDDTaoaGDTQ,Colossal Cafe,327,4.0,44.98263,-93.19582,$$,55108
2U0fyDBVkTVt9u0nm0VS2w,Baldamar,207,4.5,45.01465,-93.16929,$$$,55113
xl5z8X8TPFJmGwSn8ipBAA,The Neighborhood Café,301,4.0,44.9464,-93.16639,$$,55104
ty8xm2umF-rGIRN9V8dC7A,Fasika Ethiopian Restaurant,302,4.0,44.95642,-93.16676,$$,55104
VzrXRWksEnRSgAS0qLMqsw,The Naughty Greek,171,4.5,44.9635,-93.19805,$$,55114
vC6ozyHI6x1HHICwlusdyQ,Macs Fish & Chips,127,3.5,44.99163,-93.15618,$,55113
EjMjgTfBYY_pkY5kZDi1Tw,Zait & Za'atar,157,4.5,44.9463,-93.1689,$,55104
49EvJnf1kEJtbk1bFA0Rug,Half Time Rec,76,3.5,44.97034,-93.14308,$$,55103
BXLExPNh3aIVdJ_4MTCjBA,Pagoda,464,3.5,45.01421,-93.17725,$$,55113
5CyS4eSuMRhF7D1g0LmM-A,New Fresh Wok,134,4.0,44.99189,-93.16528,$,55113
c53iwcK-8ILHrI6CMQCm3g,Chianti Grill Roseville,275,4.0,45.00289,-93.16565,$$,55113
3v6KaKImudiDviXzqk80sg,Sole Café,120,4.0,44.96168,-93.16682,$$,55104
t51HT6xj_8Sjoxg5e75kXQ,Mirror of Korea,171,3.5,44.9639,-93.16726,$$,55104
YzJjO3XKaj3lM4CSCoXCwA,Pho Pasteur VN,63,4.0,44.96225,-93.16668,$$,55104
UhcTQvTuLalmpdg9matXXg,Turf Club,98,4.0,44.95599,-93.16796,$$,55104
wuk4JKf8Rpb8yq51DC2T8A,Burning Brothers Brewing,79,4.0,44.95881,-93.1742,$,55104
-THHbkY8iL6HR68xRD65EA,Checker Board Pizza,55,4.5,44.95669,-93.16743,$$,55104
D5OfOpImhbZDqAeLCj7_RQ,Hi-Lo Diner,547,4.0,44.94863,-93.21436,$$,55406
BEFeJowe6vY9QbSkBELA2g,Shish,423,4.0,44.93977,-93.17065,$$,55105
nlvbHvXlr7GXU6gBa6sYNQ,Grand Catch,281,4.0,44.93977,-93.1708,$$,55105
djWzqqd5veME5uGIZ_Whtw,Groveland Tap,287,4.0,44.93409,-93.17787,$$,55105
Zkn4BRbBChR5haPS8hGn9A,Caffè Biaggio,140,4.0,44.96328,-93.19704,$$,55114
i5wbSA8McFgLV1ERVrOn_Q,Longfellow Grill,360,4.0,44.94873,-93.20617,$$,55406
TRO6Pw202TOrkaxO64sx0Q,Blue Door Pub Longfellow,368,4.0,44.93979,-93.21313,$$,55406
b7KYLACdRsZrNsZoMXpjrg,Pho 79,162,3.5,44.97463,-93.19503,$,55108
TrxCH7WECVzkjX4ZmN2SAQ,The Finnish Bistro Cafe & Coffee,231,3.5,44.98156,-93.19519,$$,55108
oXLqxmGjsdL3pR94rzWEgQ,Mim's Cafe,91,4.5,44.98448,-93.18746,$,55108
fLFHwZe2DSgK98s3SKhWdw,Al's Breakfast,537,4.0,44.98101,-93.23565,$$,55414
C4BpEUEUEYG8y-14tajfzw,Foxy Falafel,141,3.5,44.96522,-93.19781,$$,55114
8ShR3b1FTcG1wF11lBcuDA,Keys Café & Bakery,153,3.5,44.96453,-93.19766,$$,55114
ZesuvK3U-6ZrMx8GK4rQGw,Himalayan Restaurant,277,4.5,44.94862,-93.22953,$$,55406
vi58lz0GLWITkg_r0WieNg,Kbop Korean Bistro,286,4.5,44.98197,-93.23677,$,55414
kLIRGu0p-j8ilVO-SfkWZw,Lands End Pasty Company,132,5.0,44.98036,-93.2367,$,55414
quCCpdzgAdn_nFcPE5OELQ,O’Shaughnessy Distilling,52,4.5,44.97368,-93.21086,$$,55414
Tll050QQPiP01ey2or72CQ,Afro Deli,218,4.5,44.97345,-93.22752,$,55414
q2kbloNYrfVfBJjjDlmeTQ,The Market at Malcolm Yards,69,4.5,44.97299,-93.21353,$$,55414
g1h6UtWSWmWMBOf6skZAPg,Tim and Tom's Speedy Market,29,4.5,44.98244,-93.19636,$$,55108
0BAIDmWcSbX4SBPuvP4Iew,Kimchi Tofu House,243,4.0,44.97328,-93.22694,$$,55414
8GwO6xW7jNe90wotC2LGKA,Shuang Cheng Restaurant,356,4.0,44.98044,-93.2365,$$,55414
iOg3OitjLbK1paTGdO63hA,Nico’s Tacos Bar on Como,95,3.5,44.98104,-93.1944,$$,55108
b1Lzfg6225QGUAfNrrB37w,UP Coffee Roasters,115,4.5,44.99259,-93.22509,$,55413
VVU19gaxLPKyzWSITKMC1Q,Wally's Falafel and Hummus,260,4.0,44.98138,-93.23565,$,55414
Mopw-koOu2bP9kPIl1v6Sg,Tea House Chinese Restaurant,312,3.5,44.97393,-93.22144,$$,55414
beiLfLG1Y0sAxhXZoqok8A,Zakia Deli,140,4.5,44.99478,-93.22637,$,55413
6DQYPEgzdrZtr4frU-qZRw,Foxy Falafel Truck,25,4.0,44.96528,-93.19577,$,55114
DkEza4eYThvhfnj_oPBSPw,Gandhi Mahal,347,4.0,44.96249,-93.22714,$$,55406
5aWhORV8Z6f--mPCHKxyEw,Cafe Racer Kitchen,132,4.5,44.95719,-93.22865,$$,55406
V5Chvw7Ff1H7nJ4anBGZFw,Cecils,457,4.0,44.92191,-93.18779,$$,55116
-fR63pHUF-xh4migIK0SOA,Estelle,67,4.5,44.93408,-93.17678,,55105
zv_XJAQr9D3PNR5eHYhC5w,Bar La Grassa,1348,4.5,44.98954,-93.27859,$$$,55401
6vaAze9Fxuco249L3BhEdQ,112 Eatery,1212,4.5,44.98253,-93.27181,$$$,55401
ErvVFzAYVArZS7gcWgY0rg,Matt's Bar,1710,4.0,44.93947,-93.24743,$,55407
5olLs-K-_k_rWrrNLjvy0w,Spoon and Stable,1018,4.5,44.98549,-93.26954,$$$,55401
Y2H6a1yz3ooTdJpunlhpeQ,Hot Hands Pie & Biscuit,89,4.5,44.93312,-93.16659,,55105
g7bbpP7x5KAc33i7pgOkLA,Hell's Kitchen,2474,4.0,44.97461,-93.27262,$$,55402
Dx52kVp9UBzI4LuL-J4TWA,Brasa Rotisserie,1020,4.5,44.98948,-93.25125,$$,55414
MDPv2B2jwA1qLvQCXlEVww,Red Cow - Minneapolis,1058,4.5,44.98354,-93.26961,$$,55401
htA1poQR17Q8y5DIXij8UA,Khyber Pass Cafe,109,4.0,44.94022,-93.16671,$$,55105
AMjgF60vPOxVOlVRKuMYOQ,Sea Salt Eatery,718,4.0,44.9161,-93.21094,$$,55467
SHKU0W3IYExq3R76-UxfFg,Punch Neapolitan Pizza - Highland Park,194,4.5,44.92013,-93.18696,$$,55116
l7mNzyV3pOZ3m87jRY6J7A,Hola Arepa,899,4.5,44.93942,-93.27741,$$,55408
ZucUm6bBfhe0bHW4oyO-Dg,Chimborazo,691,4.5,45.02029,-93.24702,$$,55418
5Y2nekkwRrNMMSx3b-2EhA,Young Joni,783,4.5,45.00123,-93.26664,$$,55413
Kh8JKH69jmuX6rPQglclIw,Pad Thai Restaurant,162,3.5,44.9401,-93.17153,$$,55105
xy0Py_x3DvG-sbkyQG-cnw,Bruegger's Bagels,22,4.0,44.97341,-93.22739,$,55414
3hH_m33czHAAWyCoLsXaTg,Vina Vietnamese,99,3.0,44.88681,-93.27769,$$,55423
CBMrq-URPZ0CGzUatPHMZA,Natedogs,18,4.5,44.97823,-93.27155,$,55402
jZhjKUREAXWgY8tqTtmwlg,Moose Bar & Grill,81,3.5,44.99482,-93.2529,$$,55413
FkmO5k63aMYSdxK3CCWtPg,Pizza Biga,31,4.0,44.9164,-93.26284,$$,55407
j-PEHL9rz1w0M3d25lD-HA,Momo Dosa Street Food,10,4.0,44.97282,-93.21352,,55414
cO1jcDjSP3u105zZlLd_fQ,Katar River Restaurant and Bakery,19,4.0,44.95251,-93.23522,$$,55406
iQhSEN0yTyL8QtGaAcAyPw,Fuzzy's Taco Shop Taqueria,27,4.0,44.9876,-93.27765,,55401
ki0OAKTRUPueCk8EfJH1Sg,Tavola Italian Kitchen & Bar,80,3.5,44.97215,-93.26677,,55404
O9inUqkM7ybA9XMWPZglcg,Roti,21,4.0,44.97331,-93.22955,,55414
6wu8i4h3aGEgDTFLMn12Jw,Adam's Soul To Go,22,4.0,45.01288,-93.16994,$$,55113
NHq-dA_9OQZ-28GMBH9jwA,Coconut Whisk Cafe & Boba Shop,24,4.5,44.97462,-93.27399,$,55402
FSoCl9nWKQ3azx-LPsZPTQ,New China Express,50,3.5,44.98092,-93.23579,$,55414
EjDPE4JtiZfMEvhU_6DXzw,Casa Maria,19,4.5,44.91245,-93.22268,,55417
Xawpkbx359DhPJ0p1Bke1w,Andrea Pizza,17,4.5,44.97653,-93.26839,$,55402
IhXWQ7YJdQf4HDz_xH3GWw,Bakers Square,28,3.5,44.91818,-93.19501,$,55116
Oy45JndjDSlOl2Jg-ZjXgQ,Pinoy Fusion,9,4.0,44.95605,-93.13345,,55104
ERv86DGRd7Dz902CGiHcjw,The Anchor Fish & Chips Food Truck,24,4.0,45.00086,-93.26433,$$,55413
8l74gBFqe2-JXTmQK2DxAA,Joe & The Juice,42,3.5,44.884,-93.20839,,55111
Q_ZC13AYhPMKHsY3F7Rtsw,Denny's,37,2.0,44.95537,-93.17056,$$,55104
O2g9qkGrJaPE6WAkRwJZAg,Pracna on Main,95,3.0,44.98481,-93.25537,$$,55413
5dugt8MavB8fNUGakqfGyQ,A&J Fish & Chicken,45,3.5,44.94859,-93.26867,$$,55408
o1EuAOHFmkOGFVJnapZTbg,The Corner Bar,55,3.5,44.97275,-93.24773,$$,55454
cvqfrooysU0sI91UN6BIlA,Bunker's Music Bar & Grill,69,3.5,44.98825,-93.27778,$$,55401
TA9TIoutTLg1iD7Lbkwfdw,Sawatdee Thai Restaurant - Minneapolis,209,2.5,44.9778,-93.25987,$$,55415
bMUvgXxCJaRYwtmw8YLOOg,Tipsy Steer,29,4.0,45.02213,-93.16499,$$,55113
hgzlu84sN-VOKfKJeM3fXQ,Davanni's Pizza & Hot Hoagies,35,3.5,44.96559,-93.23589,$,55454
OmhUtPJRatN0LlCSF3p-7A,Jersey Mike's Subs,51,3.5,45.01825,-93.21632,$,55418
83m8vQMD0-c_tf_YRCMk2Q,Great Moon Buffet,71,3.5,44.90985,-93.08008,$$,55118
PNOB-OwiC8QMh99w6R1zwQ,Selby Ave Bar and Grill,4,4.0,44.94669,-93.16673,,55104
1wadHHikmFCmnvoUhFcqXg,Advellum Vegetable Eatery,8,4.5,44.97294,-93.21314,,55414
L4oed6_ngVv4glRVkAaBpw,Von Hanson's Meats,18,3.5,44.91773,-93.18607,$$,55116
Qv4k6R_165VCmpSTjzylKQ,W XYZ Bar,38,3.5,44.97657,-93.255,$$,55415
ozv5l1vTvExoU0_XlbITxA,Adam's Gyros,13,4.5,44.9773,-93.26954,$,55402
vQ_McW7PEhI-_TvHI9yJXw,Red's Savoy Pizza,13,3.0,44.94562,-93.16732,,55104
N7Wh7A_7hJrAwnZ8JpbsYg,Surdyk's Sidebar,27,4.0,44.98848,-93.2559,,55414
PBHuAnQa-qK8Z2IUOJcFOw,Joan's In the Park,174,4.5,44.92258,-93.1674,$$$$,55116
aYgiVYlFeh3EqVpTQR071Q,Highland Grill,309,4.0,44.91822,-93.18768,$$,55116
mmWrP9IOhnJWs-rPKqJ_ww,Tono Pizzeria + Cheesesteaks,58,4.5,44.93409,-93.16733,,55105
mn6xxasxHMuuiPsA6PFABA,Nashville Coop,74,4.0,44.93259,-93.16669,$$,55105
G0EVYeOpY0ePjhCfaZl9kg,Bap And Chicken,139,4.0,44.93992,-93.15633,$$,55105
0-pMhLXkQYypjj8d-iv_Zw,Due Focacceria,69,4.0,44.9273,-93.17748,$$,55105
npi7hRhGcvhY8VBxkvDyTg,Indochin Vietnamese Restaurant,104,4.0,44.93999,-93.17241,$,55105
Hubh89U15OVeA9stQMUOOA,French Meadow Bakery & Cafe,276,3.0,44.93997,-93.17054,$$,55105
bZfmm-iD7qfXcSHbgh79iw,Colossal Cafe,173,4.0,44.9398,-93.15726,$$,55105
chO-cVhdwJ3MgnjyHzdejQ,Sakana Sushi & Asian Bistro,199,3.5,44.91921,-93.18705,$$,55116
Ekopp56TvSI89Gb7wcl_cA,Agelgil Ethiopian Restaurant,36,4.5,44.90041,-93.17406,,55116
zpYHpfMdmEUkNylcq-Ue9Q,Hazelwood Food and Drinks,593,4.5,44.85634,-93.23711,$$,55425
j7Bo0Fe26B7FRm1htXOAKA,Buca di Beppo Italian Restaurant,217,3.0,44.89736,-93.17682,$$,55116
B7-6lvbEZqT87UW6ybNcJw,Manny's Steakhouse,875,4.0,44.97443,-93.27179,$$$$,55402
43AzDuhJcHNZK4LWh27qHw,Highland Cafe & Bakery,100,4.0,44.91746,-93.18605,$$,55116
ykTnu3sVxnnIeHpLRqE8bQ,Hen House Eatery,967,4.0,44.97526,-93.27132,$$,55402
m3ytK4ve7jMa8tRENuOZMQ,Axel's Restaurants,155,3.5,44.88801,-93.16136,$$,55150
51SWfc0I300IpUZcv7kCfA,Zen Box Izakaya,656,4.0,44.97843,-93.25962,$$,55415
z8lduDUMvrc6dGSLMgEHFg,Berry Sweet Kitchen,192,4.5,44.90505,-93.2233,$$,55417
FgHddi-kBNBVGHCGtYSB0g,Luci Ancora,104,4.0,44.92679,-93.18764,$$,55105
